city_ID,city,cloudiness,country,date,humidity,latitude,longitude,max_temp,wind_speed
0,bredasdorp,2.0,ZA,04/12/2020,76.0,-34.53,20.04,53.6,58.61
1,rikitea,45.0,PF,04/12/2020,78.0,-23.12,-134.97,77.95,17.87
2,east london,0.0,ZA,04/12/2020,65.0,-33.02,27.91,64.85,12.24
3,busselton,67.0,AU,04/12/2020,71.0,-33.65,115.33,62.01,5.99
4,leningradskiy,89.0,RU,04/12/2020,86.0,69.38,178.42,21.27,2.77
5,norman wells,75.0,CA,04/12/2020,40.0,65.28,-126.83,37.4,8.05
6,upernavik,100.0,GL,04/12/2020,98.0,72.79,-56.15,29.53,5.28
7,tautira,48.0,PF,04/12/2020,70.0,-17.73,-149.15,86.0,9.17
8,puerto ayora,75.0,EC,04/12/2020,88.0,-0.74,-90.35,80.6,5.82
9,vaini,20.0,TO,04/12/2020,69.0,-21.2,-175.2,80.6,9.17
10,chuy,34.0,UY,04/12/2020,83.0,-33.7,-53.46,63.68,10.07
11,dikson,100.0,RU,04/12/2020,96.0,73.51,80.55,13.23,17.31
12,torbay,20.0,CA,04/12/2020,52.0,47.67,-52.73,41.0,10.29
13,cape town,0.0,ZA,04/12/2020,82.0,-33.93,18.42,55.99,3.36
14,pawai,0.0,IN,04/12/2020,20.0,24.27,80.17,78.85,2.33
15,ushuaia,90.0,AR,04/12/2020,87.0,-54.8,-68.3,42.8,21.92
16,katsuura,75.0,JP,04/12/2020,93.0,35.13,140.3,51.8,25.28
17,belcesti,1.0,RO,04/12/2020,32.0,47.3,27.08,52.0,5.82
18,bluff,78.0,NZ,04/12/2020,81.0,-46.6,168.33,46.0,11.01
19,tibati,100.0,CM,04/12/2020,45.0,6.47,12.63,71.83,1.77
20,butaritari,95.0,KI,04/12/2020,79.0,3.07,172.79,83.14,15.73
21,tasiilaq,100.0,GL,04/12/2020,92.0,65.61,-37.64,30.2,33.33
22,killarney,71.0,IE,04/12/2020,88.0,52.05,-9.52,43.3,8.1
23,ilulissat,100.0,GL,04/12/2020,80.0,69.22,-51.1,35.6,8.05
24,omutninsk,100.0,RU,04/12/2020,96.0,58.67,52.19,27.81,10.92
25,camabatela,100.0,AO,04/12/2020,69.0,-8.19,15.38,63.61,2.84
26,nikolskoye,90.0,RU,04/12/2020,87.0,59.7,30.79,42.8,11.18
27,yellowknife,5.0,CA,04/12/2020,44.0,62.46,-114.35,21.0,5.82
28,aklavik,20.0,CA,04/12/2020,96.0,68.22,-135.01,32.0,5.82
29,swellendam,8.0,ZA,04/12/2020,76.0,-34.02,20.44,53.6,58.61
30,khatanga,48.0,RU,04/12/2020,95.0,71.97,102.5,6.64,9.89
31,kodiak,90.0,US,04/12/2020,81.0,57.79,-152.41,44.6,5.82
32,luderitz,7.0,NA,04/12/2020,100.0,-26.65,15.16,60.8,10.29
33,san patricio,40.0,MX,04/12/2020,79.0,19.22,-104.7,84.2,11.41
34,hokota,75.0,JP,04/12/2020,87.0,36.15,140.52,51.01,26.4
35,lazaro cardenas,37.0,MX,04/12/2020,64.0,17.96,-102.2,81.77,6.53
36,saint-philippe,93.0,RE,04/12/2020,78.0,-21.36,55.77,73.4,6.93
37,nyurba,92.0,RU,04/12/2020,80.0,63.28,118.33,35.49,8.97
38,cidreira,60.0,BR,04/12/2020,78.0,-30.18,-50.21,66.97,14.92
39,mar del plata,90.0,AR,04/12/2020,82.0,-38.0,-57.56,64.4,14.99
40,pangnirtung,100.0,CA,04/12/2020,92.0,66.15,-65.71,23.77,7.29
41,souillac,75.0,MU,04/12/2020,83.0,-20.52,57.52,78.01,13.87
42,tsihombe,,,,,,,,
43,punta arenas,40.0,CL,04/12/2020,71.0,-53.15,-70.92,50.0,32.21
44,inhambane,0.0,MZ,04/12/2020,83.0,-23.86,35.38,75.13,11.23
45,lata,75.0,PT,04/12/2020,87.0,40.16,-8.33,59.0,5.82
46,kapaa,1.0,US,04/12/2020,61.0,22.08,-159.32,78.8,9.17
47,brekstad,75.0,NO,04/12/2020,81.0,63.69,9.67,33.8,39.15
48,teguise,20.0,ES,04/12/2020,68.0,29.06,-13.56,64.4,9.17
49,arlit,9.0,NE,04/12/2020,12.0,18.74,7.39,84.34,5.73
50,cabo san lucas,5.0,MX,04/12/2020,56.0,22.89,-109.91,75.2,5.82
51,kolpny,83.0,RU,04/12/2020,71.0,52.23,37.04,37.18,8.43
52,barentsburg,,,,,,,,
53,kokopo,86.0,PG,04/12/2020,65.0,-4.35,152.26,85.87,4.5
54,qaanaaq,93.0,GL,04/12/2020,77.0,77.48,-69.36,14.95,3.8
55,teshie,40.0,GH,04/12/2020,83.0,5.58,-0.11,84.2,12.75
56,nakamura,51.0,JP,04/12/2020,78.0,32.98,132.93,44.76,18.32
57,vaitupu,,,,,,,,
58,caravelas,35.0,BR,04/12/2020,85.0,-17.71,-39.25,77.65,16.04
59,iquitos,75.0,PE,04/12/2020,100.0,-3.75,-73.25,42.8,2.24
60,kariba,49.0,ZW,04/12/2020,54.0,-16.52,28.8,70.11,3.98
61,hithadhoo,20.0,MV,04/12/2020,69.0,-0.6,73.08,84.47,8.14
62,atuona,6.0,PF,04/12/2020,68.0,-9.8,-139.03,82.27,3.76
63,mahebourg,75.0,MU,04/12/2020,83.0,-20.41,57.7,78.01,13.87
64,tiksi,98.0,RU,04/12/2020,96.0,71.69,128.87,23.38,10.78
65,albany,75.0,US,04/12/2020,25.0,42.6,-73.97,62.6,16.11
66,hasaki,75.0,JP,04/12/2020,100.0,35.73,140.83,50.0,19.46
67,coari,68.0,BR,04/12/2020,94.0,-4.08,-63.14,76.21,1.86
68,hofn,84.0,IS,04/12/2020,83.0,64.25,-15.21,35.33,17.92
69,whitehorse,90.0,CA,04/12/2020,28.0,60.72,-135.05,44.6,16.11
70,rawson,0.0,AR,04/12/2020,39.0,-43.3,-65.1,58.75,9.31
71,avarua,97.0,CK,04/12/2020,94.0,-21.21,-159.78,80.6,3.36
72,jamestown,90.0,US,04/12/2020,38.0,42.1,-79.24,66.2,6.93
73,mataura,73.0,NZ,04/12/2020,81.0,-46.19,168.86,46.0,11.01
74,hermanus,5.0,ZA,04/12/2020,79.0,-34.42,19.23,55.99,3.62
75,salalah,20.0,OM,04/12/2020,69.0,17.02,54.09,82.4,10.29
76,myanaung,44.0,MM,04/12/2020,72.0,18.28,95.32,71.44,0.72
77,hilo,1.0,US,04/12/2020,65.0,19.73,-155.09,82.4,11.41
78,saint george,1.0,US,04/12/2020,32.0,37.1,-113.58,68.0,20.8
79,sapernoye,100.0,RU,04/12/2020,87.0,60.72,29.95,41.0,13.09
80,victoria,44.0,HK,04/12/2020,36.0,22.29,114.16,62.6,11.41
81,portland,20.0,US,04/12/2020,22.0,45.52,-122.68,66.99,14.99
82,dolbeau,,,,,,,,
83,monywa,0.0,MM,04/12/2020,35.0,22.12,95.13,80.1,5.21
84,new norfolk,75.0,AU,04/12/2020,93.0,-42.78,147.06,55.0,1.12
85,taolanaro,,,,,,,,
86,lagoa,3.0,PT,04/12/2020,83.0,39.05,-27.98,61.11,9.01
87,dong hoi,100.0,VN,04/12/2020,81.0,17.48,106.6,64.42,7.38
88,byron bay,0.0,AU,04/12/2020,82.0,-28.65,153.62,73.99,5.82
89,thompson,90.0,CA,04/12/2020,56.0,55.74,-97.86,12.2,6.93
90,tharrawaddy,,,,,,,,
91,sinnamary,54.0,GF,04/12/2020,76.0,5.38,-52.95,79.34,13.58
92,grindavik,90.0,IS,04/12/2020,100.0,63.84,-22.43,42.8,18.34
93,willowmore,2.0,ZA,04/12/2020,64.0,-33.29,23.49,50.07,3.69
94,porto novo,40.0,BJ,04/12/2020,83.0,6.5,2.6,84.2,11.41
95,port alfred,12.0,ZA,04/12/2020,83.0,-33.59,26.89,60.01,3.0
96,hobart,75.0,AU,04/12/2020,93.0,-42.88,147.33,55.0,1.12
97,umm jarr,,,,,,,,
98,kavaratti,21.0,IN,04/12/2020,72.0,10.57,72.64,84.38,7.76
99,poum,96.0,NC,04/12/2020,71.0,-20.23,164.02,79.63,4.16
100,ayr,75.0,GB,04/12/2020,73.0,55.46,-4.63,43.0,13.87
101,goderich,99.0,CA,04/12/2020,74.0,43.75,-81.72,55.99,14.05
102,calama,0.0,CL,04/12/2020,16.0,-22.47,-68.93,68.0,19.46
103,chagda,,,,,,,,
104,alta floresta,40.0,BR,04/12/2020,83.0,-9.88,-56.09,80.6,8.05
105,hami,69.0,CN,04/12/2020,21.0,42.8,93.45,57.06,1.59
106,mys shmidta,,,,,,,,
107,panzhihua,76.0,CN,04/12/2020,48.0,26.59,101.71,61.29,1.36
108,vestmannaeyjar,100.0,IS,04/12/2020,88.0,63.44,-20.27,44.28,22.97
109,kataysk,36.0,RU,04/12/2020,87.0,56.29,62.58,38.46,2.1
110,fort nelson,20.0,CA,04/12/2020,27.0,58.81,-122.7,41.0,4.7
111,soderhamn,94.0,SE,04/12/2020,54.0,61.3,17.06,37.99,3.0
112,saint-augustin,7.0,CA,04/12/2020,93.0,51.23,-58.65,29.08,11.61
113,saldanha,0.0,ZA,04/12/2020,81.0,-33.01,17.94,53.6,3.36
114,port hardy,40.0,CA,04/12/2020,28.0,50.7,-127.42,55.4,4.7
115,nizhneyansk,,,,,,,,
116,kuala terengganu,40.0,MY,04/12/2020,94.0,5.33,103.14,80.6,2.24
117,oranjemund,28.0,NA,04/12/2020,93.0,-28.55,16.43,60.1,6.4
118,tall kayf,0.0,TR,04/12/2020,41.0,37.08,41.07,48.52,2.46
119,anito,36.0,PH,04/12/2020,70.0,12.45,125.29,82.47,5.08
120,tuktoyaktuk,20.0,CA,04/12/2020,79.0,69.45,-133.04,21.2,4.7
121,lebu,0.0,CL,04/12/2020,71.0,-37.62,-73.65,52.05,12.37
122,panorama,4.0,GR,04/12/2020,87.0,40.59,23.03,57.0,4.7
123,yerbogachen,16.0,RU,04/12/2020,83.0,61.28,108.01,32.65,3.78
124,broome,90.0,US,04/12/2020,30.0,42.25,-75.83,62.6,13.87
125,sulangan,3.0,PH,04/12/2020,71.0,11.14,123.72,82.45,6.33
126,saskylakh,99.0,RU,04/12/2020,92.0,71.92,114.08,3.61,18.1
127,san quintin,6.0,MX,04/12/2020,67.0,30.48,-115.95,61.9,15.79
128,bonnyville,75.0,CA,04/12/2020,41.0,54.27,-110.73,23.0,19.46
129,chara,5.0,RU,04/12/2020,79.0,56.91,118.26,25.66,0.63
130,kidal,50.0,ML,04/12/2020,12.0,18.44,1.41,83.91,6.62
131,codrington,48.0,AU,04/12/2020,65.0,-38.27,141.97,56.5,8.16
132,kruisfontein,3.0,ZA,04/12/2020,80.0,-34.0,24.73,54.12,7.09
133,mount isa,23.0,AU,04/12/2020,35.0,-20.73,139.5,73.4,12.35
134,baghdad,20.0,IQ,04/12/2020,55.0,33.34,44.4,60.8,9.17
135,illoqqortoormiut,,,,,,,,
136,dunedin,87.0,NZ,04/12/2020,67.0,-45.87,170.5,48.0,4.0
137,gandu,100.0,BR,04/12/2020,90.0,-13.74,-39.49,73.2,0.47
138,grand forks,90.0,US,04/12/2020,63.0,47.93,-97.03,30.99,12.75
139,ketchikan,1.0,US,04/12/2020,46.0,55.34,-131.65,53.6,12.75
140,haibowan,,,,,,,,
141,acajutla,27.0,SV,04/12/2020,70.0,13.59,-89.83,84.99,3.0
142,axim,4.0,GH,04/12/2020,86.0,4.87,-2.24,80.74,6.69
143,merrill,90.0,US,04/12/2020,84.0,45.18,-89.68,32.0,8.05
144,bambous virieux,75.0,MU,04/12/2020,83.0,-20.34,57.76,78.01,13.87
145,ouadda,97.0,CF,04/12/2020,39.0,8.08,22.4,69.55,1.03
146,cap malheureux,75.0,MU,04/12/2020,83.0,-19.98,57.61,78.01,13.87
147,wexford,92.0,IE,04/12/2020,81.0,52.33,-6.46,51.01,10.29
148,high prairie,10.0,CA,04/12/2020,82.0,55.43,-116.49,26.96,7.7
149,itaituba,40.0,BR,04/12/2020,94.0,-4.28,-55.98,78.8,2.24
150,airai,44.0,TL,04/12/2020,65.0,-8.93,125.41,68.59,0.63
151,payakumbuh,100.0,ID,04/12/2020,78.0,-0.22,100.63,69.96,2.48
152,safford,1.0,US,04/12/2020,32.0,32.83,-109.71,69.8,12.75
153,carnarvon,1.0,AU,04/12/2020,100.0,-24.87,113.63,75.2,14.99
154,arraial do cabo,75.0,BR,04/12/2020,83.0,-22.97,-42.03,73.4,5.82
155,isangel,20.0,VU,04/12/2020,78.0,-19.55,169.27,82.4,4.7
156,saint-leu,100.0,RE,04/12/2020,78.0,-21.15,55.28,73.4,6.93
157,darhan,80.0,MN,04/12/2020,57.0,49.49,105.92,37.42,11.9
158,barrow,90.0,US,04/12/2020,85.0,71.29,-156.79,24.8,4.7
159,esperance,90.0,AU,04/12/2020,100.0,-33.87,121.9,62.6,6.31
160,varhaug,20.0,NO,04/12/2020,64.0,58.61,5.65,37.4,26.4
161,lyubech,89.0,UA,04/12/2020,62.0,51.7,30.66,39.69,9.31
162,ribeira grande,5.0,PT,04/12/2020,78.0,38.52,-28.7,61.74,7.11
163,trelew,0.0,AR,04/12/2020,36.0,-43.25,-65.31,58.01,9.13
164,bairiki,75.0,KI,04/12/2020,79.0,1.33,172.98,86.0,12.75
165,severo-kurilsk,81.0,RU,04/12/2020,93.0,50.68,156.12,30.81,9.08
166,ingham,90.0,US,04/12/2020,62.0,42.6,-84.38,61.0,6.93
167,northam,96.0,GB,04/12/2020,79.0,51.03,-4.22,57.0,3.0
168,vila velha,90.0,BR,04/12/2020,69.0,-20.33,-40.29,75.2,12.75
169,qui nhon,99.0,VN,04/12/2020,85.0,13.77,109.23,77.16,11.43
170,sao filipe,23.0,CV,04/12/2020,78.0,14.9,-24.5,73.58,10.87
171,mogadishu,25.0,SO,04/12/2020,77.0,2.04,45.34,82.26,10.36
172,ust-tsilma,0.0,RU,04/12/2020,95.0,65.44,52.15,16.68,2.04
173,kaohsiung,75.0,TW,04/12/2020,36.0,22.62,120.31,64.0,10.29
174,camacha,75.0,PT,04/12/2020,87.0,33.08,-16.33,62.6,12.75
175,pevek,49.0,RU,04/12/2020,91.0,69.7,170.31,10.99,11.48
176,galveston,1.0,US,04/12/2020,21.0,29.37,-94.97,90.0,21.92
177,taoudenni,42.0,ML,04/12/2020,14.0,22.68,-3.98,84.9,9.31
178,doha,100.0,QA,04/12/2020,74.0,25.29,51.53,78.8,9.17
179,cairns,0.0,AU,04/12/2020,78.0,-16.92,145.77,80.01,11.41
180,urazovka,13.0,RU,04/12/2020,89.0,55.4,45.62,29.93,14.54
181,cam pha,,,,,,,,
182,palabuhanratu,,,,,,,,
183,vagay,98.0,RU,04/12/2020,89.0,57.94,69.02,40.73,7.76
184,attawapiskat,,,,,,,,
185,gidole,94.0,ET,04/12/2020,61.0,5.65,37.37,57.4,1.14
186,klaksvik,93.0,FO,04/12/2020,83.0,62.23,-6.59,32.0,11.41
187,burnie,92.0,AU,04/12/2020,7.0,-41.07,145.92,55.0,5.99
188,yulara,0.0,AU,04/12/2020,45.0,-25.24,130.99,66.2,5.82
189,jaque,100.0,PA,04/12/2020,87.0,7.52,-78.17,78.35,1.9
190,alice springs,1.0,AU,04/12/2020,51.0,-23.7,133.88,60.8,3.36
191,westport,1.0,US,04/12/2020,58.0,41.14,-73.36,62.6,9.17
192,provideniya,90.0,RU,04/12/2020,80.0,64.38,-173.3,30.2,11.18
193,laguna,1.0,US,04/12/2020,56.0,38.42,-121.42,75.99,4.59
194,alyangula,79.0,AU,04/12/2020,100.0,-13.85,136.42,75.2,6.42
195,petropavlovsk-kamchatskiy,17.0,RU,04/12/2020,92.0,53.05,158.65,32.0,4.47
196,cedar city,1.0,US,04/12/2020,26.0,37.68,-113.06,55.99,11.59
197,ayaviri,34.0,PE,04/12/2020,17.0,-14.89,-70.59,47.93,5.32
198,labutta,,,,,,,,
199,khalkhal,100.0,IR,04/12/2020,51.0,37.62,48.53,31.68,5.75
200,natal,66.0,BR,04/12/2020,83.0,-5.79,-35.21,82.4,6.93
201,amahai,92.0,ID,04/12/2020,73.0,-3.33,128.92,83.28,2.89
202,naze,75.0,JP,04/12/2020,44.0,28.37,129.48,62.6,19.46
203,ruteng,77.0,ID,04/12/2020,70.0,-8.61,120.47,68.32,2.06
204,aksu,6.0,CN,04/12/2020,23.0,41.12,80.26,55.38,1.48
205,gornopravdinsk,100.0,RU,04/12/2020,94.0,60.05,69.9,36.1,5.77
206,fayaoue,97.0,NC,04/12/2020,67.0,-20.65,166.53,79.14,6.29
207,pangody,100.0,RU,04/12/2020,96.0,65.85,74.49,33.69,7.67
208,wamba,51.0,NG,04/12/2020,27.0,8.93,8.6,79.61,3.29
209,vostok,0.0,RU,04/12/2020,39.0,46.49,135.88,45.95,2.48
210,matagami,75.0,CA,04/12/2020,55.0,49.75,-77.63,37.4,8.05
211,pacific grove,90.0,US,04/12/2020,87.0,36.62,-121.92,63.0,9.17
212,tabuk,70.0,PH,04/12/2020,76.0,17.42,121.44,74.23,8.77
213,pedregulho,1.0,BR,04/12/2020,75.0,-20.26,-47.48,62.47,4.9
214,kirakira,100.0,SB,04/12/2020,71.0,-10.45,161.92,84.11,4.97
215,sibu,75.0,MY,04/12/2020,94.0,2.3,111.82,75.2,2.24
216,esil,0.0,KZ,04/12/2020,62.0,51.96,66.4,40.91,8.25
217,puerto escondido,40.0,MX,04/12/2020,74.0,15.85,-97.07,84.2,11.41
218,los llanos de aridane,20.0,ES,04/12/2020,68.0,28.66,-17.92,66.2,12.75
219,kattivakkam,20.0,IN,04/12/2020,88.0,13.22,80.32,82.0,3.36
220,iqaluit,90.0,CA,04/12/2020,79.0,63.75,-68.51,19.4,19.46
221,pauini,78.0,BR,04/12/2020,92.0,-7.71,-66.98,73.26,2.3
222,yatou,0.0,CN,04/12/2020,57.0,37.15,122.38,50.54,14.88
223,pitimbu,20.0,BR,04/12/2020,88.0,-7.47,-34.81,78.8,5.82
224,ciudad bolivar,73.0,VE,04/12/2020,39.0,8.12,-63.55,88.84,14.25
225,chapais,75.0,CA,04/12/2020,51.0,49.78,-74.85,39.2,9.17
226,richards bay,29.0,ZA,04/12/2020,82.0,-28.78,32.04,76.26,15.3
227,sokoto,0.0,NG,04/12/2020,13.0,13.06,5.24,84.29,11.14
228,xining,26.0,CN,04/12/2020,22.0,36.62,101.77,43.2,3.51
229,batemans bay,100.0,AU,04/12/2020,100.0,-35.72,150.18,57.0,2.66
230,esso,93.0,RU,04/12/2020,84.0,55.93,158.7,25.34,1.68
231,arman,100.0,RU,04/12/2020,94.0,59.7,150.17,22.37,4.34
232,nsanje,20.0,MW,04/12/2020,82.0,-16.92,35.26,70.79,3.83
233,faya,20.0,SA,04/12/2020,82.0,18.39,42.45,62.6,4.7
234,asifabad,0.0,IN,04/12/2020,26.0,19.37,79.28,80.37,3.33
235,winona,90.0,US,04/12/2020,87.0,43.97,-91.77,33.8,10.29
236,kieta,87.0,PG,04/12/2020,65.0,-6.22,155.63,86.34,2.75
237,kaitangata,88.0,NZ,04/12/2020,67.0,-46.28,169.85,48.0,4.0
238,lyantonde,100.0,UG,04/12/2020,63.0,-0.4,31.16,64.04,3.02
239,zhicheng,47.0,CN,04/12/2020,83.0,30.3,111.5,48.99,1.99
240,sitka,75.0,US,04/12/2020,32.0,57.05,-135.33,51.8,3.36
241,saint-marc,11.0,HT,04/12/2020,68.0,19.11,-72.69,81.75,5.08
242,amderma,,,,,,,,
243,sergeyevka,3.0,KZ,04/12/2020,79.0,53.88,67.42,39.94,8.03
244,adrar,75.0,MR,04/12/2020,18.0,20.5,-10.07,79.32,13.2
245,roseburg,1.0,US,04/12/2020,29.0,43.22,-123.34,66.99,7.4
246,eisiskes,63.0,LT,04/12/2020,39.0,54.17,25.0,46.99,12.75
247,sola,68.0,VU,04/12/2020,88.0,-13.88,167.55,82.4,14.9
248,ponta delgada,75.0,PT,04/12/2020,72.0,37.73,-25.67,60.8,10.29
249,masterton,26.0,NZ,04/12/2020,72.0,-40.96,175.66,62.01,13.0
250,te anau,45.0,NZ,04/12/2020,72.0,-45.42,167.72,42.91,11.27
251,vrises,100.0,GR,04/12/2020,93.0,35.49,23.89,62.01,5.46
252,vao,85.0,NC,04/12/2020,72.0,-22.67,167.48,77.5,4.14
253,acapulco,40.0,MX,04/12/2020,74.0,16.86,-99.89,84.2,6.93
254,nabire,86.0,ID,04/12/2020,65.0,-3.37,135.48,83.77,2.62
255,geraldton,75.0,AU,04/12/2020,83.0,-28.77,114.6,71.6,6.93
256,tucumcari,1.0,US,04/12/2020,34.0,35.17,-103.72,51.8,19.46
257,marawi,0.0,PH,04/12/2020,53.0,8.0,124.29,77.41,1.14
258,clyde river,90.0,CA,04/12/2020,85.0,70.47,-68.59,10.4,25.28
259,grand river south east,,,,,,,,
260,jiazi,75.0,CN,04/12/2020,50.0,22.88,116.07,61.74,10.25
261,tiarei,21.0,PF,04/12/2020,70.0,-17.53,-149.33,86.0,9.17
262,san andres,20.0,CO,04/12/2020,74.0,12.58,-81.7,84.2,12.75
263,hjelset,90.0,NO,04/12/2020,80.0,62.78,7.48,33.8,16.11
264,constitucion,9.0,CL,04/12/2020,70.0,-35.33,-72.42,51.93,8.48
265,betanzos,75.0,ES,04/12/2020,93.0,43.28,-8.21,54.0,16.11
266,jiayuguan,72.0,CN,04/12/2020,18.0,39.82,98.3,49.51,4.43
267,witu,100.0,KE,04/12/2020,86.0,-2.39,40.44,79.11,6.71
268,nemuro,0.0,JP,04/12/2020,87.0,43.32,145.57,34.02,10.22
269,longyearbyen,40.0,SJ,04/12/2020,70.0,78.22,15.64,-4.0,2.24
270,bubaque,37.0,GW,04/12/2020,73.0,11.28,-15.83,79.11,9.98
271,honningsvag,75.0,NO,04/12/2020,74.0,70.98,25.97,30.2,16.11
272,teguldet,0.0,RU,04/12/2020,89.0,57.31,88.17,32.4,7.78
273,port moresby,40.0,PG,04/12/2020,94.0,-9.44,147.18,78.8,3.36
274,zhanjiang,25.0,CN,04/12/2020,55.0,21.28,110.34,64.9,11.12
275,yagodnoye,100.0,RU,04/12/2020,91.0,62.55,149.67,23.94,2.86
276,wanning,83.0,CN,04/12/2020,68.0,18.8,110.4,68.63,9.31
277,georgetown,20.0,MY,04/12/2020,94.0,5.41,100.34,80.6,2.24
278,dickson,90.0,US,04/12/2020,100.0,36.08,-87.39,57.2,5.82
279,kautokeino,100.0,NO,04/12/2020,94.0,69.01,23.04,24.67,23.64
280,cordoba,75.0,AR,04/12/2020,56.0,-31.41,-64.18,70.0,4.7
281,flinders,100.0,AU,04/12/2020,67.0,-34.58,150.86,63.0,9.17
282,terrace bay,90.0,CA,04/12/2020,38.0,48.78,-87.1,39.2,5.82
283,corn island,1.0,NI,04/12/2020,80.0,12.17,-83.04,82.45,15.01
284,kibondo,78.0,TZ,04/12/2020,67.0,-3.59,30.72,60.84,1.41
285,miri,75.0,MY,04/12/2020,100.0,4.41,114.01,77.0,1.12
286,mampong,16.0,GH,04/12/2020,78.0,7.06,-1.4,75.76,6.08
287,kungurtug,59.0,RU,04/12/2020,46.0,50.6,97.52,34.97,2.01
288,danielskuil,39.0,ZA,04/12/2020,28.0,-28.19,23.54,56.03,3.04
289,boa vista,40.0,BR,04/12/2020,41.0,2.82,-60.67,91.4,14.99
290,yar-sale,100.0,RU,04/12/2020,98.0,66.83,70.83,21.54,10.07
291,belyy yar,0.0,RU,04/12/2020,86.0,53.6,91.39,26.6,1.59
292,ponta do sol,75.0,PT,04/12/2020,77.0,32.67,-17.1,62.6,9.17
293,waco,1.0,US,04/12/2020,24.0,31.55,-97.15,81.0,26.4
294,moorhead,90.0,US,04/12/2020,68.0,46.87,-96.77,32.0,16.11
295,ulladulla,100.0,AU,04/12/2020,67.0,-35.35,150.47,57.2,9.17
296,ayagoz,100.0,KZ,04/12/2020,72.0,47.97,80.44,48.7,11.23
297,eskilstuna,77.0,SE,04/12/2020,72.0,59.37,16.51,41.0,3.36
298,lorengau,40.0,PG,04/12/2020,70.0,-2.02,147.27,84.76,3.13
299,jining,0.0,CN,04/12/2020,42.0,35.41,116.58,53.04,4.07
300,faanui,72.0,PF,04/12/2020,68.0,-16.48,-151.75,83.57,9.48
301,san felipe,21.0,VE,04/12/2020,74.0,10.34,-68.74,74.16,4.88
302,khandyga,60.0,RU,04/12/2020,95.0,62.67,135.6,27.21,3.11
303,maniitsoq,100.0,GL,04/12/2020,95.0,65.42,-52.9,32.43,30.2
304,namibe,21.0,AO,04/12/2020,74.0,-15.2,12.15,76.17,2.93
305,utevka,59.0,RU,04/12/2020,85.0,52.9,50.95,35.02,3.78
306,lincoln,90.0,US,04/12/2020,80.0,40.8,-96.67,33.01,36.91
307,lavrentiya,100.0,RU,04/12/2020,97.0,65.58,-171.0,29.8,4.56
308,zvishavane,67.0,ZW,04/12/2020,38.0,-20.33,30.07,64.81,3.15
309,gizo,92.0,SB,04/12/2020,69.0,-8.1,156.84,86.41,3.04
310,quatre cocos,75.0,MU,04/12/2020,83.0,-20.21,57.76,78.01,13.87
311,hohhot,92.0,CN,04/12/2020,23.0,40.81,111.65,32.0,6.71
312,belushya guba,,,,,,,,
313,stornoway,75.0,GB,04/12/2020,60.0,58.21,-6.39,41.0,18.34
314,rungata,,,,,,,,
315,taltal,7.0,CL,04/12/2020,76.0,-25.4,-70.48,61.61,2.77
316,yayva,99.0,RU,04/12/2020,78.0,59.33,57.26,36.0,1.99
317,panino,68.0,RU,04/12/2020,63.0,51.65,40.13,26.6,4.25
318,maldonado,54.0,UY,04/12/2020,77.0,-34.67,-54.92,66.2,2.24
319,seondha,38.0,IN,04/12/2020,22.0,26.16,78.78,81.93,5.39
320,bengkulu,93.0,ID,04/12/2020,80.0,-3.8,102.27,78.42,3.42
321,mangai,98.0,CD,04/12/2020,88.0,-4.05,19.53,69.82,1.92
322,nadym,100.0,RU,04/12/2020,97.0,65.53,72.52,34.07,9.62
323,brae,96.0,GB,04/12/2020,59.0,60.4,-1.35,37.4,21.92
324,keti bandar,10.0,PK,04/12/2020,75.0,24.14,67.45,77.09,10.83
325,chokurdakh,52.0,RU,04/12/2020,91.0,70.63,147.92,-1.59,7.63
326,matamoros,20.0,MX,04/12/2020,2.0,25.53,-103.25,89.6,10.29
327,road town,20.0,VG,04/12/2020,62.0,18.42,-64.62,84.2,8.05
328,talara,53.0,PE,04/12/2020,72.0,-4.58,-81.27,76.03,14.43
329,kayes,74.0,ML,04/12/2020,20.0,14.0,-11.0,98.6,4.7
330,nhulunbuy,24.0,AU,04/12/2020,94.0,-12.23,136.77,78.8,8.72
331,fasa,75.0,IR,04/12/2020,100.0,28.94,53.65,53.6,3.29
332,margate,81.0,GB,04/12/2020,82.0,51.38,1.39,57.0,12.75
333,mehamn,75.0,NO,04/12/2020,74.0,71.04,27.85,30.2,16.11
334,monte alegre,92.0,BR,04/12/2020,94.0,-2.01,-54.07,77.34,4.0
335,nardaran,100.0,AZ,04/12/2020,70.0,40.56,50.01,48.2,13.87
336,arcata,1.0,US,04/12/2020,67.0,40.87,-124.08,63.0,9.17
337,anadyr,40.0,RU,04/12/2020,84.0,64.75,177.48,3.2,13.42
338,dwarka,0.0,IN,04/12/2020,74.0,22.24,68.97,79.9,15.57
339,duminichi,74.0,RU,04/12/2020,74.0,53.93,35.11,36.01,7.36
340,pacifica,75.0,US,04/12/2020,72.0,37.61,-122.49,73.0,6.93
341,lac du bonnet,40.0,CA,04/12/2020,53.0,50.25,-96.06,28.0,6.8
342,vila franca do campo,75.0,PT,04/12/2020,72.0,37.72,-25.43,60.8,10.29
343,twin falls,40.0,US,04/12/2020,22.0,42.56,-114.46,55.0,14.99
344,ngunguru,17.0,NZ,04/12/2020,78.0,-35.62,174.5,69.01,4.0
345,samarai,53.0,PG,04/12/2020,66.0,-10.62,150.67,82.27,8.46
346,vanimo,100.0,PG,04/12/2020,85.0,-2.67,141.3,79.54,9.46
347,tilichiki,1.0,RU,04/12/2020,90.0,60.47,166.1,14.05,7.0
348,port-gentil,77.0,GA,04/12/2020,73.0,-0.72,8.78,79.84,2.8
349,nelson bay,69.0,AU,04/12/2020,87.0,-32.72,152.15,60.01,8.05
350,katesh,100.0,TZ,04/12/2020,61.0,-4.52,35.38,60.33,4.83
351,aripuana,61.0,BR,04/12/2020,90.0,-9.17,-60.63,73.54,0.51
352,aldan,93.0,RU,04/12/2020,82.0,58.6,125.39,27.79,7.29
353,castro,22.0,BR,04/12/2020,68.0,-24.79,-50.01,57.7,6.04
354,muros,40.0,ES,04/12/2020,93.0,42.78,-9.06,57.99,1.12
355,beyneu,81.0,KZ,04/12/2020,61.0,45.32,55.2,43.88,12.75
356,port elizabeth,20.0,ZA,04/12/2020,72.0,-33.92,25.57,60.8,9.17
357,manta,75.0,EC,04/12/2020,88.0,-0.95,-80.73,78.8,9.17
358,marsa matruh,0.0,EG,04/12/2020,76.0,31.35,27.25,53.6,0.81
359,babanusah,,,,,,,,
360,grand centre,,,,,,,,
361,wewak,93.0,PG,04/12/2020,79.0,-3.55,143.63,81.91,5.64
362,tuatapere,49.0,NZ,04/12/2020,81.0,-46.13,167.68,46.0,11.01
363,andenes,100.0,NO,04/12/2020,74.0,69.31,16.12,33.8,35.57
364,igbo ora,2.0,NG,04/12/2020,78.0,7.43,3.28,79.77,4.09
365,panguna,86.0,PG,04/12/2020,62.0,-6.32,155.48,80.94,1.41
366,kyabe,100.0,TD,04/12/2020,32.0,9.45,18.94,86.54,5.48
367,sidmouth,94.0,GB,04/12/2020,81.0,50.69,-3.24,55.99,2.24
368,jhargram,0.0,IN,04/12/2020,66.0,22.45,86.98,76.14,3.74
369,norsup,40.0,VU,04/12/2020,66.0,-16.07,167.38,84.2,1.12
370,tahta,0.0,EG,04/12/2020,32.0,26.77,31.5,68.0,12.75
371,narsaq,98.0,GL,04/12/2020,93.0,60.92,-46.05,37.4,4.7
372,najran,40.0,SA,04/12/2020,69.0,17.49,44.13,73.4,11.41
373,aguadilla,40.0,PR,04/12/2020,80.0,18.43,-67.15,82.99,4.7
374,tazovskiy,100.0,RU,04/12/2020,97.0,67.47,78.7,16.05,5.66
375,nuuk,90.0,GL,04/12/2020,93.0,64.18,-51.72,35.6,35.57
376,baglung,21.0,NP,04/12/2020,18.0,28.27,83.59,63.59,6.35
377,arshan,29.0,RU,04/12/2020,47.0,46.27,44.22,37.4,17.9
378,sangar,64.0,RU,04/12/2020,92.0,63.92,127.47,25.2,7.85
379,pisco,1.0,PE,04/12/2020,30.0,-13.7,-76.22,78.01,23.04
380,ilanskiy,0.0,RU,04/12/2020,74.0,56.24,96.06,35.06,11.95
381,kavieng,98.0,PG,04/12/2020,73.0,-2.57,150.8,83.7,2.91
382,ewa beach,20.0,US,04/12/2020,57.0,21.32,-158.01,82.4,11.41
383,gorontalo,1.0,ID,04/12/2020,57.0,0.54,123.06,81.28,2.24
384,toribio,75.0,CO,04/12/2020,65.0,2.95,-76.27,80.6,2.24
385,pangoa,58.0,PE,04/12/2020,75.0,-12.12,-73.0,71.08,1.3
386,nouakchott,53.0,MR,04/12/2020,69.0,18.09,-15.98,75.2,16.11
387,fairbanks,75.0,US,04/12/2020,48.0,64.84,-147.72,46.4,4.7
388,mont-de-marsan,80.0,FR,04/12/2020,82.0,44.0,-0.67,60.8,5.82
389,sidney,88.0,AU,04/12/2020,71.0,-33.87,151.21,62.01,6.93
390,pathein,16.0,MM,04/12/2020,87.0,16.78,94.73,76.39,7.94
391,pandan,93.0,PH,04/12/2020,75.0,14.05,124.17,81.57,9.73
392,zhigansk,100.0,RU,04/12/2020,98.0,66.77,123.37,31.8,8.57
393,nanortalik,83.0,GL,04/12/2020,97.0,60.14,-45.24,31.75,18.32
394,saint-pierre,100.0,RE,04/12/2020,78.0,-21.34,55.48,73.4,6.93
395,suzun,90.0,RU,04/12/2020,89.0,53.78,82.31,32.99,7.09
396,ancud,75.0,CL,04/12/2020,76.0,-41.87,-73.82,53.6,4.7
397,changde,9.0,CN,04/12/2020,68.0,29.05,111.68,56.35,4.27
398,samusu,,,,,,,,
399,norwich,82.0,GB,04/12/2020,76.0,52.63,1.3,51.01,16.11
400,bilibino,1.0,RU,04/12/2020,86.0,68.05,166.44,12.94,2.8
401,berdigestyakh,16.0,RU,04/12/2020,93.0,62.1,126.7,29.16,7.81
402,emilio carranza,24.0,MX,04/12/2020,58.0,19.97,-96.61,87.85,8.9
403,guadalupe y calvo,0.0,MX,04/12/2020,12.0,26.1,-106.97,59.5,9.15
404,inderborskiy,,,,,,,,
405,aswan,7.0,EG,04/12/2020,16.0,24.09,32.91,68.0,5.82
406,komsomolskiy,90.0,UZ,04/12/2020,77.0,40.43,71.72,60.8,4.7
407,sile,0.0,TR,04/12/2020,82.0,41.18,29.61,46.0,6.42
408,husavik,56.0,IS,04/12/2020,60.0,66.04,-17.34,42.8,28.86
409,marcona,,,,,,,,
410,gulshat,,,,,,,,
411,okmulgee,90.0,US,04/12/2020,87.0,35.62,-95.96,51.8,21.92
412,yuxia,54.0,CN,04/12/2020,74.0,34.06,108.63,52.0,2.24
413,sinaloa,5.0,MX,04/12/2020,21.0,25.0,-107.5,84.99,11.41
414,tumannyy,,,,,,,,
415,palizada,20.0,MX,04/12/2020,33.0,18.25,-92.08,104.0,1.57
416,ngukurr,,,,,,,,
417,lazdijai,66.0,LT,04/12/2020,62.0,54.23,23.52,46.9,12.15
418,mayor pablo lagerenza,3.0,PY,04/12/2020,50.0,-19.93,-60.77,76.5,5.35
419,talnakh,100.0,RU,04/12/2020,78.0,69.49,88.4,17.6,6.71
420,manbij,0.0,SY,04/12/2020,66.0,36.53,37.95,53.6,3.36
421,ambovombe,0.0,MG,04/12/2020,77.0,-25.17,46.08,73.26,7.74
422,pyinmana,12.0,MM,04/12/2020,42.0,19.73,96.22,73.15,2.57
423,aflu,,,,,,,,
424,chingirlau,78.0,KZ,04/12/2020,93.0,51.09,54.08,32.32,19.15
425,nauen,25.0,DE,04/12/2020,58.0,52.61,12.87,59.0,3.36
426,port macquarie,0.0,AU,04/12/2020,71.0,-31.43,152.92,61.0,5.82
427,beloha,0.0,MG,04/12/2020,71.0,-25.17,45.05,73.22,5.17
428,ucluelet,20.0,CA,04/12/2020,43.0,48.93,-125.55,59.0,8.05
429,praia da vitoria,75.0,PT,04/12/2020,77.0,38.73,-27.07,60.8,11.65
430,binzhou,0.0,CN,04/12/2020,52.0,37.37,118.02,46.0,6.91
431,benguela,28.0,AO,04/12/2020,82.0,-12.58,13.41,77.67,3.74
432,saint-joseph,97.0,RE,04/12/2020,78.0,-21.37,55.62,73.4,6.93
433,along,50.0,IN,04/12/2020,53.0,28.17,94.77,63.1,4.47
434,hay river,40.0,CA,04/12/2020,57.0,60.82,-115.8,17.6,9.17
435,marsh harbour,26.0,BS,04/12/2020,80.0,26.54,-77.06,76.39,21.39
436,beringovskiy,100.0,RU,04/12/2020,95.0,63.05,179.32,18.25,8.32
437,carrickfergus,47.0,GB,04/12/2020,81.0,54.72,-5.81,46.99,14.99
438,dromolaxia,0.0,CY,04/12/2020,87.0,34.88,33.59,57.2,4.7
439,college,75.0,US,04/12/2020,31.0,64.86,-147.8,46.4,1.43
440,oktyabrskiy,17.0,RU,04/12/2020,84.0,54.48,53.47,33.51,1.63
441,viedma,4.0,AR,04/12/2020,62.0,-40.81,-63.0,54.84,8.66
442,karratha,19.0,AU,04/12/2020,60.0,-20.74,116.85,83.17,6.13
443,venado tuerto,100.0,AR,04/12/2020,63.0,-33.75,-61.97,66.99,2.19
444,derazhnya,18.0,UA,04/12/2020,64.0,49.27,27.43,42.03,8.9
445,muroto,20.0,JP,04/12/2020,61.0,33.28,134.15,48.2,24.16
446,hebi,6.0,CN,04/12/2020,33.0,35.9,114.19,57.85,4.21
447,taldan,92.0,RU,04/12/2020,59.0,53.67,124.8,38.07,10.22
448,kuito,100.0,AO,04/12/2020,59.0,-12.38,16.93,59.29,2.57
449,ilam,0.0,NP,04/12/2020,31.0,26.92,87.92,59.94,4.21
450,half moon bay,75.0,US,04/12/2020,87.0,37.46,-122.43,71.01,3.36
451,xuanzhou,0.0,CN,04/12/2020,59.0,30.95,118.76,51.67,4.76
452,mae ramat,83.0,TH,04/12/2020,52.0,16.98,98.52,72.01,1.88
453,rio gallegos,96.0,AR,04/12/2020,66.0,-51.62,-69.22,53.6,19.46
454,carauari,100.0,BR,04/12/2020,95.0,-4.88,-66.9,74.26,1.5
455,sentyabrskiy,,,,,,,,
456,meulaboh,96.0,ID,04/12/2020,81.0,4.14,96.13,79.32,4.34
457,champerico,40.0,GT,04/12/2020,52.0,14.3,-91.92,93.2,13.87
458,pathalgaon,0.0,IN,04/12/2020,18.0,22.57,83.47,75.31,3.85
459,waddan,0.0,LY,04/12/2020,29.0,29.16,16.14,66.94,16.51
460,banda aceh,83.0,ID,04/12/2020,79.0,5.56,95.32,80.1,9.26
461,beira,20.0,MZ,04/12/2020,94.0,-19.84,34.84,69.8,5.82
462,cherskiy,97.0,RU,04/12/2020,96.0,68.75,161.3,18.19,7.61
463,ranong,72.0,TH,04/12/2020,78.0,9.97,98.63,80.42,5.3
464,salina,90.0,US,04/12/2020,64.0,38.84,-97.61,35.6,33.33
465,bolungarvik,,,,,,,,
466,bethel,20.0,US,04/12/2020,62.0,41.37,-73.41,61.0,6.93
467,ixtapa,40.0,MX,04/12/2020,50.0,20.7,-105.2,78.8,13.87
468,palu,52.0,ID,04/12/2020,62.0,-0.89,119.87,83.17,1.74
469,sterling,90.0,US,04/12/2020,43.0,39.01,-77.43,71.6,11.41
470,lolua,,,,,,,,
471,maningrida,78.0,AU,04/12/2020,75.0,-12.07,134.27,82.22,7.34
472,wladyslawowo,77.0,PL,04/12/2020,76.0,54.79,18.4,55.99,6.93
473,lima,26.0,PE,04/12/2020,78.0,-12.04,-77.03,73.4,13.87
474,beeskow,49.0,DE,04/12/2020,76.0,52.17,14.25,57.99,4.7
475,gambela,74.0,ET,04/12/2020,67.0,8.25,34.58,76.01,3.85
476,sidi ali,85.0,DZ,04/12/2020,81.0,36.1,0.42,59.83,3.4
477,verkhnevilyuysk,90.0,RU,04/12/2020,82.0,63.45,120.32,34.97,9.64
478,machico,75.0,PT,04/12/2020,77.0,32.7,-16.77,62.6,8.05
479,markivka,6.0,UA,04/12/2020,75.0,49.52,39.57,36.05,8.86
480,shu,100.0,KZ,04/12/2020,44.0,43.6,73.76,55.99,3.0
481,kusti,54.0,SD,04/12/2020,13.0,13.16,32.66,79.25,14.65
482,hirara,40.0,JP,04/12/2020,39.0,24.8,125.28,66.2,13.87
483,chinna salem,0.0,IN,04/12/2020,71.0,11.65,78.9,75.09,1.48
484,pittsburg,20.0,US,04/12/2020,52.0,38.03,-121.88,75.2,5.61
485,raga,73.0,SS,04/12/2020,42.0,8.46,25.68,75.06,3.42
486,martapura,20.0,ID,04/12/2020,100.0,-3.42,114.85,77.0,0.67
487,tukrah,0.0,LY,04/12/2020,64.0,32.53,20.58,57.81,9.66
488,saucillo,0.0,MX,04/12/2020,9.0,28.02,-105.28,78.98,9.69
489,santa cruz,0.0,BO,04/12/2020,45.0,-17.8,-63.17,84.2,11.41
490,haines junction,82.0,CA,04/12/2020,57.0,60.75,-137.51,37.94,7.11
491,mendoza,40.0,AR,04/12/2020,56.0,-32.89,-68.83,68.0,4.94
492,rudnya,40.0,RU,04/12/2020,31.0,54.95,31.09,46.4,8.95
493,ostrovnoy,100.0,RU,04/12/2020,92.0,68.05,39.51,28.09,24.11
494,north platte,75.0,US,04/12/2020,58.0,41.12,-100.77,30.2,24.16
495,kondopoga,100.0,RU,04/12/2020,93.0,62.21,34.26,37.4,8.95
496,piacabucu,3.0,BR,04/12/2020,78.0,-10.41,-36.43,80.02,9.8
497,lagos,20.0,NG,04/12/2020,83.0,6.58,3.75,84.2,8.05
498,port hedland,90.0,AU,04/12/2020,83.0,-20.32,118.57,78.8,6.93
499,alofi,77.0,NU,04/12/2020,66.0,-19.06,-169.92,84.2,14.99
500,abu samrah,0.0,SY,04/12/2020,63.0,35.3,37.18,52.12,5.3
501,grand gaube,75.0,MU,04/12/2020,83.0,-20.01,57.66,78.01,13.87
502,sudak,45.0,UA,04/12/2020,60.0,44.85,34.97,42.91,4.81
503,taunggyi,1.0,MM,04/12/2020,37.0,20.78,97.03,60.3,1.86
504,jumla,63.0,NP,04/12/2020,21.0,29.27,82.18,45.82,4.83
505,warqla,,,,,,,,
506,morondava,1.0,MG,04/12/2020,80.0,-20.28,44.28,76.12,6.38
507,padang,100.0,ID,04/12/2020,77.0,-0.95,100.35,77.56,3.8
508,riyadh,55.0,SA,04/12/2020,28.0,24.69,46.72,71.6,6.93
509,shingu,87.0,JP,04/12/2020,76.0,33.73,135.98,55.47,14.67
510,kulhudhuffushi,76.0,MV,04/12/2020,70.0,6.62,73.07,85.14,8.16
511,marienburg,41.0,PL,04/12/2020,75.0,54.04,19.03,55.99,6.93
512,baykit,16.0,RU,04/12/2020,94.0,61.67,96.37,29.5,0.72
513,kudahuvadhoo,49.0,MV,04/12/2020,67.0,2.67,72.89,83.43,2.51
514,egvekinot,23.0,RU,04/12/2020,86.0,66.32,-179.17,22.91,1.54
515,todos santos,5.0,MX,04/12/2020,36.0,23.45,-110.22,75.2,10.29
516,kloulklubed,75.0,PW,04/12/2020,88.0,7.04,134.26,80.6,5.82
517,fukue,67.0,JP,04/12/2020,69.0,32.69,128.84,52.59,29.48
518,la palma,90.0,US,04/12/2020,67.0,33.85,-118.05,63.0,8.05
519,killybegs,42.0,IE,04/12/2020,88.0,54.63,-8.45,44.01,5.99
520,tezu,89.0,IN,04/12/2020,36.0,27.92,96.17,71.22,2.55
521,storforshei,100.0,NO,04/12/2020,92.0,66.4,14.52,30.49,13.65
522,satitoa,,,,,,,,
523,eenhana,17.0,NA,04/12/2020,88.0,-17.47,16.33,71.6,2.24
524,aykhal,90.0,RU,04/12/2020,89.0,66.0,111.5,32.0,6.71
525,aloleng,65.0,PH,04/12/2020,74.0,16.13,119.78,80.92,13.8
526,el sauzal,85.0,MX,04/12/2020,77.0,31.9,-116.68,62.01,4.0
527,berlevag,100.0,NO,04/12/2020,91.0,70.86,29.09,32.7,24.79
528,lahaina,40.0,US,04/12/2020,83.0,20.88,-156.68,78.8,8.05
529,tamandare,25.0,BR,04/12/2020,77.0,-8.76,-35.1,80.44,8.55
530,wagar,94.0,SD,04/12/2020,39.0,16.15,36.2,70.52,10.04
531,xai-xai,1.0,MZ,04/12/2020,72.0,-25.05,33.64,72.88,7.65
532,puerto palomas,1.0,MX,04/12/2020,32.0,31.77,-107.62,66.2,21.92
533,bilma,0.0,NE,04/12/2020,15.0,18.69,12.92,80.22,7.45
534,ha giang,100.0,VN,04/12/2020,78.0,22.83,104.98,63.36,1.74
535,buala,93.0,SB,04/12/2020,75.0,-8.14,159.59,84.78,7.72
536,kahului,20.0,US,04/12/2020,65.0,20.89,-156.47,78.8,12.75
537,houston,20.0,US,04/12/2020,24.0,29.76,-95.36,90.0,23.04
538,kenai,90.0,US,04/12/2020,74.0,60.55,-151.26,41.0,14.99
539,yumen,49.0,CN,04/12/2020,18.0,40.28,97.2,50.74,7.4
540,mrirt,,,,,,,,
541,rocha,53.0,UY,04/12/2020,89.0,-34.48,-54.33,57.56,6.24
542,touros,74.0,BR,04/12/2020,83.0,-5.2,-35.46,80.6,6.93
543,balimo,,,,,,,,
544,katete,100.0,UG,04/12/2020,61.0,-0.78,29.75,63.97,2.91
545,hamilton,90.0,US,04/12/2020,59.0,39.18,-84.53,61.0,4.7
546,boali,20.0,CF,04/12/2020,88.0,4.8,18.13,78.8,3.36
547,wajima,100.0,JP,04/12/2020,75.0,37.4,136.9,51.33,40.31
548,zambezi,49.0,ZM,04/12/2020,66.0,-13.54,23.1,64.09,3.58
549,semnan,8.0,IR,04/12/2020,34.0,35.57,53.4,50.72,5.55
550,nantucket,90.0,US,04/12/2020,81.0,41.28,-70.1,53.01,10.29
551,grand-santi,42.0,GF,04/12/2020,87.0,4.25,-54.38,74.32,3.22
552,coihaique,40.0,CL,04/12/2020,76.0,-45.58,-72.07,53.6,3.36
553,sao joao da barra,75.0,BR,04/12/2020,73.0,-21.64,-41.05,73.4,4.7
554,botwood,20.0,CA,04/12/2020,51.0,49.15,-55.35,39.2,6.93
555,villarrica,0.0,PY,04/12/2020,45.0,-25.75,-56.43,66.25,3.56
556,price,20.0,US,04/12/2020,18.0,39.6,-110.81,51.8,18.34
557,thisted,33.0,DK,04/12/2020,74.0,56.96,8.69,42.01,5.99
558,rabo de peixe,75.0,PT,04/12/2020,72.0,37.8,-25.58,60.8,10.29
559,qom,4.0,IR,04/12/2020,37.0,34.64,50.88,56.05,9.31
560,salinas,90.0,US,04/12/2020,76.0,36.68,-121.66,64.99,9.17
561,phan thiet,86.0,VN,04/12/2020,76.0,10.93,108.1,80.02,9.62
562,narasannapeta,0.0,IN,04/12/2020,83.0,18.42,84.05,76.59,5.5
563,cascas,93.0,PE,04/12/2020,47.0,-7.48,-78.82,69.8,2.44
564,avera,90.0,US,04/12/2020,100.0,33.19,-82.53,75.2,13.87
565,sumbawa,,,,,,,,
566,sabha,0.0,LY,04/12/2020,17.0,27.04,14.43,74.12,15.86
567,juneau,90.0,US,04/12/2020,42.0,58.3,-134.42,48.2,3.36
568,hazorasp,99.0,UZ,04/12/2020,58.0,41.32,61.07,55.4,4.7
569,fort frances,20.0,CA,04/12/2020,34.0,48.6,-93.4,34.0,10.29
570,nishihara,75.0,JP,04/12/2020,67.0,26.18,127.76,62.6,31.09
571,tual,92.0,ID,04/12/2020,71.0,-5.67,132.75,84.69,5.93
572,razole,0.0,IN,04/12/2020,94.0,16.48,81.83,74.41,0.56
573,dawei,94.0,MM,04/12/2020,63.0,14.08,98.2,77.68,4.72
574,galgani,,,,,,,,
575,murupara,64.0,NZ,04/12/2020,69.0,-38.47,176.7,70.0,3.0
576,tabiauea,,,,,,,,
577,stropkov,22.0,SK,04/12/2020,65.0,49.2,21.65,44.6,5.82
578,umzimvubu,,,,,,,,
579,chiradzulu,41.0,MW,04/12/2020,72.0,-15.67,35.14,61.21,2.51
580,namatanai,92.0,PG,04/12/2020,71.0,-3.67,152.43,83.7,3.31
581,san cristobal,20.0,VE,04/12/2020,55.0,7.77,-72.22,89.6,10.29
582,henties bay,0.0,NA,04/12/2020,86.0,-22.12,14.28,64.0,1.99
583,galle,17.0,LK,04/12/2020,81.0,6.04,80.22,79.27,2.57
584,tucuman,40.0,AR,04/12/2020,64.0,-26.82,-65.22,73.4,13.87
585,labrea,93.0,BR,04/12/2020,96.0,-7.26,-64.8,75.81,2.13
586,quelimane,20.0,MZ,04/12/2020,83.0,-17.88,36.89,77.0,3.47
587,srednekolymsk,90.0,RU,04/12/2020,93.0,67.45,153.68,16.41,8.37
588,zaysan,100.0,KZ,04/12/2020,43.0,47.47,84.87,54.1,2.42
589,vicar,75.0,ES,04/12/2020,93.0,36.83,-2.64,59.0,5.82
590,staryy nadym,100.0,RU,04/12/2020,97.0,65.61,72.68,34.11,9.08
591,senador guiomard,75.0,BR,04/12/2020,100.0,-10.15,-67.74,77.0,5.82
592,the pas,90.0,CA,04/12/2020,52.0,53.83,-101.25,15.8,8.05
593,omsukchan,5.0,RU,04/12/2020,86.0,62.53,155.8,16.36,1.63
594,urumqi,34.0,CN,04/12/2020,37.0,43.8,87.6,55.4,4.47
595,lewiston,75.0,US,04/12/2020,49.0,44.1,-70.21,51.01,6.93
596,dujuma,,,,,,,,
597,glens falls,90.0,US,04/12/2020,28.0,43.31,-73.64,62.6,10.29
598,djambala,100.0,CG,04/12/2020,79.0,-2.54,14.75,68.31,2.64
599,kota kinabalu,20.0,MY,04/12/2020,88.0,5.97,116.07,79.0,3.36
600,khonuu,,,,,,,,
601,lesnoy,88.0,RU,04/12/2020,89.0,57.62,63.08,40.46,5.88
602,flin flon,90.0,CA,04/12/2020,52.0,54.77,-101.86,15.8,12.75
603,bakel,31.0,SN,04/12/2020,17.0,14.9,-12.46,90.72,7.54
604,malinovskiy,100.0,RU,04/12/2020,92.0,61.2,62.84,35.35,4.21
605,kamarion,0.0,GR,04/12/2020,48.0,36.8,25.82,63.0,16.11
606,tessalit,35.0,ML,04/12/2020,17.0,20.2,1.01,83.12,2.35
607,vezirkopru,78.0,TR,04/12/2020,74.0,41.14,35.45,30.2,3.36
608,koutiala,67.0,ML,04/12/2020,32.0,12.39,-5.46,89.69,1.36
609,christchurch,15.0,NZ,04/12/2020,51.0,-43.53,172.63,64.99,3.36
610,kafanchan,25.0,NG,04/12/2020,24.0,9.58,8.3,75.7,2.17
