city_ID,city,cloudiness,country,date,humidity,latitude,longitude,max_temp,wind_speed
0,vaini,20.0,TO,1586574068.0,65.0,-21.2,-175.2,80.6,8.05
1,new norfolk,75.0,AU,1586574069.0,58.0,-42.78,147.06,57.0,17.22
2,dikson,91.0,RU,1586574069.0,95.0,73.51,80.55,10.15,11.01
3,chokurdakh,39.0,RU,1586574069.0,96.0,70.63,147.92,24.96,15.99
4,katsuura,20.0,JP,1586574070.0,44.0,35.13,140.3,62.01,9.17
5,yellowknife,75.0,CA,1586574016.0,72.0,62.46,-114.35,17.6,10.29
6,kruisfontein,25.0,ZA,1586574070.0,52.0,-34.0,24.73,56.91,5.3
7,luderitz,0.0,NA,1586574070.0,82.0,-26.65,15.16,55.4,2.24
8,nikolskoye,75.0,RU,1586574071.0,96.0,59.7,30.79,32.0,11.18
9,baherden,83.0,TM,1586574071.0,58.0,38.44,57.43,56.91,3.04
10,taoudenni,0.0,ML,1586574071.0,14.0,22.68,-3.98,80.58,6.33
11,lebowakgomo,62.0,ZA,1586574071.0,87.0,-24.2,29.5,57.2,4.7
12,khani,90.0,GE,1586574071.0,93.0,41.96,42.96,48.2,3.36
13,college,90.0,US,1586574072.0,74.0,64.86,-147.8,39.2,9.17
14,thompson,90.0,CA,1586574072.0,58.0,55.74,-97.86,30.2,2.24
15,cayenne,95.0,GF,1586573981.0,88.0,4.93,-52.33,80.6,2.24
16,shenxian,0.0,CN,1586574072.0,32.0,36.24,115.67,60.66,9.33
17,klaksvik,100.0,FO,1586573981.0,100.0,62.23,-6.59,46.4,6.93
18,albany,40.0,US,1586574053.0,64.0,42.6,-73.97,39.2,14.99
19,barrow,90.0,US,1586574073.0,70.0,71.29,-156.79,-0.4,11.41
20,norman wells,75.0,CA,1586574073.0,36.0,65.28,-126.83,30.2,4.36
21,hilo,90.0,US,1586574073.0,88.0,19.73,-155.09,75.2,4.7
22,saskylakh,86.0,RU,1586574074.0,94.0,71.92,114.08,30.72,20.65
23,faanui,94.0,PF,1586574074.0,70.0,-16.48,-151.75,83.64,5.82
24,tessalit,40.0,ML,1586574074.0,14.0,20.2,1.01,78.96,7.61
25,punta arenas,20.0,CL,1586573984.0,80.0,-53.15,-70.92,41.0,13.87
26,atuona,84.0,PF,1586574075.0,75.0,-9.8,-139.03,82.45,11.34
27,fairbanks,90.0,US,1586574075.0,80.0,64.84,-147.72,37.0,13.87
28,charters towers,82.0,AU,1586574075.0,39.0,-20.1,146.27,87.6,1.92
29,meulaboh,80.0,ID,1586574075.0,68.0,4.14,96.13,84.97,2.93
30,ribeira grande,97.0,PT,1586574076.0,73.0,38.52,-28.7,61.54,4.7
31,porto walter,86.0,BR,1586574076.0,90.0,-8.27,-72.74,73.62,0.56
32,tasiilaq,99.0,GL,1586574076.0,53.0,65.61,-37.64,24.8,2.24
33,tari,98.0,NG,1586574076.0,29.0,12.41,4.49,84.25,5.64
34,labytnangi,100.0,RU,1586574077.0,96.0,66.66,66.42,18.55,17.78
35,oktyabrskiy,28.0,RU,1586574077.0,71.0,54.48,53.47,38.01,9.82
36,sabinas hidalgo,85.0,MX,1586574077.0,74.0,26.5,-100.17,74.95,11.95
37,attawapiskat,,,,,,,,
38,taolanaro,,,,,,,,
39,esna,3.0,EG,1586574078.0,48.0,25.29,32.55,62.6,6.33
40,qaanaaq,43.0,GL,1586574078.0,74.0,77.48,-69.36,4.24,7.7
41,tumannyy,,,,,,,,
42,ushuaia,20.0,AR,1586574061.0,81.0,-54.8,-68.3,41.0,5.82
43,torbay,90.0,CA,1586574079.0,93.0,47.67,-52.73,37.99,14.99
44,provideniya,100.0,RU,1586574079.0,94.0,64.38,-173.3,15.37,13.49
45,constitucion,100.0,CL,1586574080.0,89.0,-35.33,-72.42,54.81,8.86
46,cidreira,7.0,BR,1586574080.0,82.0,-30.18,-50.21,62.73,4.36
47,busselton,51.0,AU,1586573977.0,28.0,-33.65,115.33,89.01,7.25
48,karauzyak,,,,,,,,
49,bluff,1.0,NZ,1586574081.0,49.0,-46.6,168.33,70.0,7.0
50,atar,0.0,MR,1586574081.0,19.0,20.52,-13.05,78.71,10.96
51,mar del plata,0.0,AR,1586574081.0,82.0,-38.0,-57.56,55.4,6.93
52,bandarbeyla,39.0,SO,1586574082.0,70.0,9.49,50.81,79.88,5.88
53,la ronge,90.0,CA,1586574082.0,79.0,55.1,-105.28,24.8,16.11
54,georgetown,20.0,MY,1586573868.0,74.0,5.41,100.34,87.8,6.93
55,severo-kurilsk,52.0,RU,1586574082.0,94.0,50.68,156.12,31.59,4.94
56,key biscayne,75.0,US,1586574082.0,78.0,25.69,-80.16,81.0,8.05
57,koygorodok,95.0,RU,1586574083.0,95.0,60.45,51.0,28.83,5.64
58,akyab,69.0,MM,1586574083.0,64.0,20.15,92.9,84.24,2.77
59,virginia beach,1.0,US,1586574080.0,34.0,36.85,-75.98,53.6,13.87
60,ereymentau,0.0,KZ,1586574083.0,57.0,51.62,73.1,41.36,6.31
61,geraldton,97.0,AU,1586574084.0,55.0,-28.77,114.6,91.0,11.41
62,rikitea,14.0,PF,1586573944.0,74.0,-23.12,-134.97,77.65,9.86
63,susanville,1.0,US,1586574084.0,41.0,40.42,-120.65,60.8,1.92
64,barentsburg,,,,,,,,
65,sao filipe,76.0,CV,1586574051.0,73.0,14.9,-24.5,75.15,8.25
66,arona,75.0,ES,1586574085.0,72.0,28.1,-16.68,70.0,6.93
67,hithadhoo,16.0,MV,1586574085.0,63.0,-0.6,73.08,84.69,8.7
68,mataura,0.0,NZ,1586574085.0,49.0,-46.19,168.86,70.0,7.0
69,kahului,40.0,US,1586574085.0,51.0,20.89,-156.47,80.6,16.11
70,ponta do sol,20.0,PT,1586574086.0,68.0,32.67,-17.1,66.2,11.41
71,mahdasht,90.0,IR,1586574086.0,93.0,35.73,50.81,48.2,13.87
72,longyearbyen,20.0,SJ,1586574086.0,76.0,78.22,15.64,-7.6,5.82
73,louisbourg,,,,,,,,
74,puerto ayora,87.0,EC,1586574086.0,86.0,-0.74,-90.35,80.01,1.52
75,gasa,40.0,PS,1586574087.0,87.0,31.5,34.47,57.2,9.17
76,perbaungan,20.0,ID,1586574087.0,74.0,3.57,98.96,87.8,6.93
77,port hardy,40.0,CA,1586574087.0,70.0,50.7,-127.42,48.2,8.05
78,daru,50.0,PG,1586574088.0,73.0,-9.08,143.21,84.31,8.81
79,cape town,40.0,ZA,1586574071.0,93.0,-33.93,18.42,62.6,10.29
80,saldanha,84.0,ZA,1586574088.0,88.0,-33.01,17.94,62.6,3.36
81,victor harbor,40.0,AU,1586574088.0,42.0,-35.57,138.62,68.0,19.46
82,saint-philippe,39.0,RE,1586574045.0,73.0,-21.36,55.77,77.0,9.17
83,beloha,19.0,MG,1586574089.0,84.0,-25.17,45.05,70.25,13.69
84,nanortalik,100.0,GL,1586574040.0,90.0,60.14,-45.24,32.27,4.52
85,livny,94.0,RU,1586574089.0,78.0,52.43,37.61,35.53,8.81
86,chiredzi,98.0,ZW,1586574089.0,77.0,-21.05,31.67,61.45,1.63
87,salt,75.0,JO,1586574090.0,87.0,32.04,35.73,50.0,11.41
88,bumba,91.0,CD,1586574090.0,73.0,2.18,22.47,72.73,0.67
89,roma,90.0,US,1586574090.0,80.0,43.21,-75.46,39.2,11.41
90,tomatlan,28.0,MX,1586574039.0,52.0,19.93,-105.25,76.37,10.4
91,bambous virieux,40.0,MU,1586574091.0,83.0,-20.34,57.76,78.01,6.93
92,tuatapere,2.0,NZ,1586574091.0,49.0,-46.13,167.68,70.0,7.0
93,port alfred,13.0,ZA,1586574091.0,87.0,-33.59,26.89,64.45,6.2
94,jitia,29.0,RO,1586574091.0,70.0,45.58,26.72,36.0,23.0
95,pangoa,49.0,PE,1586574091.0,76.0,-12.12,-73.0,66.47,1.14
96,okha,0.0,RU,1586574092.0,92.0,53.57,142.95,32.31,7.34
97,khatanga,96.0,RU,1586573976.0,95.0,71.97,102.5,26.35,26.62
98,kavaratti,38.0,IN,1586574092.0,70.0,10.57,72.64,84.74,7.38
99,kaitangata,0.0,NZ,1586574043.0,52.0,-46.28,169.85,63.21,5.35
100,suruc,75.0,TR,1586574092.0,100.0,36.98,38.42,46.4,1.95
101,saint-paul,40.0,RE,1586574093.0,78.0,-21.01,55.27,77.0,11.41
102,san ramon de la nueva oran,36.0,AR,1586574093.0,60.0,-23.13,-64.33,62.62,2.21
103,talaya,14.0,RU,1586574093.0,84.0,61.38,152.75,25.3,8.1
104,cherepanovo,0.0,RU,1586574093.0,87.0,54.22,83.38,34.0,7.05
105,clyde river,75.0,CA,1586574094.0,91.0,70.47,-68.59,3.2,19.46
106,lompoc,1.0,US,1586574000.0,82.0,34.64,-120.46,59.0,11.41
107,waipawa,0.0,NZ,1586574094.0,63.0,-41.41,175.52,64.4,24.16
108,kapaa,75.0,US,1586574094.0,65.0,22.08,-159.32,78.8,6.93
109,evanston,40.0,US,1586573867.0,56.0,42.04,-87.69,45.0,3.36
110,tuensang,0.0,IN,1586574095.0,17.0,26.28,94.83,82.89,2.55
111,kodiak,1.0,US,1586574055.0,69.0,57.79,-152.41,39.2,9.17
112,illoqqortoormiut,,,,,,,,
113,upernavik,0.0,GL,1586574095.0,85.0,72.79,-56.15,10.89,9.78
114,mount isa,57.0,AU,1586574096.0,16.0,-20.73,139.5,87.8,14.99
115,kuliyapitiya,20.0,LK,1586574096.0,78.0,7.47,80.04,82.4,4.7
116,victoria,40.0,HK,1586573830.0,83.0,22.29,114.16,75.2,5.82
117,belushya guba,,,,,,,,
118,antofagasta,20.0,CL,1586574096.0,88.0,-23.65,-70.4,64.4,6.93
119,tambura,99.0,SS,1586574096.0,76.0,5.6,27.47,70.81,4.09
120,bredasdorp,100.0,ZA,1586574097.0,82.0,-34.53,20.04,62.6,8.05
121,ilulissat,61.0,GL,1586574097.0,46.0,69.22,-51.1,30.2,10.29
122,guamuchil,11.0,MX,1586574097.0,36.0,25.47,-108.1,66.11,2.95
123,myanaung,72.0,MM,1586574098.0,31.0,18.28,95.32,93.51,2.3
124,kidal,33.0,ML,1586574098.0,21.0,18.44,1.41,81.63,6.53
125,waingapu,42.0,ID,1586574098.0,64.0,-9.66,120.26,85.14,7.56
126,aripuana,75.0,BR,1586574098.0,94.0,-9.17,-60.63,73.63,1.25
127,castro,42.0,BR,1586574098.0,72.0,-24.79,-50.01,55.53,5.37
128,dire dawa,10.0,ET,1586574099.0,48.0,9.59,41.87,70.9,8.21
129,lotofaga,90.0,WS,1586574099.0,84.0,-13.98,-171.86,86.0,10.07
130,viedma,0.0,AR,1586574099.0,41.0,-40.81,-63.0,65.89,19.95
131,mundo nuevo,17.0,MX,1586574099.0,91.0,18.7,-95.5,79.03,6.02
132,port hedland,0.0,AU,1586574100.0,23.0,-20.32,118.57,95.0,8.05
133,port-de-paix,,,,,,,,
134,storforshei,100.0,NO,1586574100.0,91.0,66.4,14.52,22.14,1.68
135,vardo,100.0,NO,1586574100.0,90.0,70.37,31.11,29.03,20.94
136,souillac,40.0,MU,1586574100.0,83.0,-20.52,57.52,78.01,6.93
137,jamestown,90.0,US,1586573952.0,80.0,42.1,-79.24,39.2,6.93
138,bababe,,,,,,,,
139,sitangkai,82.0,PH,1586574101.0,71.0,4.66,119.39,82.71,2.33
140,carballo,75.0,ES,1586574101.0,100.0,43.21,-8.69,57.0,4.29
141,palabuhanratu,,,,,,,,
142,mount gambier,75.0,AU,1586574102.0,54.0,-37.83,140.77,57.2,26.4
143,batouri,100.0,CM,1586574102.0,80.0,4.43,14.37,71.08,2.91
144,miramar,90.0,US,1586574102.0,74.0,25.99,-80.23,81.0,12.75
145,henties bay,28.0,NA,1586574102.0,50.0,-22.12,14.28,74.32,4.88
146,jalu,0.0,LY,1586574103.0,66.0,29.03,21.55,54.72,9.1
147,lebu,70.0,CL,1586574103.0,86.0,-37.62,-73.65,56.68,11.77
148,karratha,2.0,AU,1586574046.0,33.0,-20.74,116.85,90.0,3.91
149,lyngseidet,90.0,NO,1586574103.0,92.0,69.58,20.22,26.6,23.04
150,kegayli,,,,,,,,
151,duayaw nkwanta,96.0,GH,1586574104.0,84.0,7.17,-2.1,70.45,1.5
152,vanavara,98.0,RU,1586573843.0,73.0,60.34,102.28,35.65,9.53
153,san cristobal,69.0,VE,1586574104.0,62.0,7.77,-72.22,69.01,2.08
154,sao gabriel,2.0,BR,1586573808.0,87.0,-30.34,-54.32,55.85,6.6
155,khonuu,,,,,,,,
156,lagoa,93.0,PT,1586574105.0,72.0,39.05,-27.98,61.12,6.6
157,chimbote,26.0,PE,1586574105.0,78.0,-9.09,-78.58,73.58,5.97
158,hobart,75.0,AU,1586573956.0,58.0,-42.88,147.33,57.0,17.22
159,kamenskoye,,,,,,,,
160,heilbron,10.0,ZA,1586574106.0,55.0,-27.28,27.97,51.94,2.77
161,avarua,100.0,CK,1586574106.0,83.0,-21.21,-159.78,84.2,9.17
162,qasigiannguit,96.0,GL,1586574106.0,46.0,68.82,-51.19,30.2,10.29
163,tateyama,20.0,JP,1586574107.0,44.0,34.98,139.87,62.01,13.87
164,west bay,89.0,KY,1586574107.0,82.0,19.37,-81.42,80.01,1.99
165,kavarna,76.0,BG,1586574093.0,34.0,43.43,28.33,53.6,5.82
166,moron,0.0,AR,1586574107.0,87.0,-34.65,-58.62,64.4,5.82
167,sakakah,58.0,SA,1586574107.0,50.0,29.97,40.21,55.4,4.7
168,ulladulla,75.0,AU,1586574108.0,40.0,-35.35,150.47,71.6,29.97
169,gurskoye,,,,,,,,
170,dolbeau,,,,,,,,
171,de aar,4.0,ZA,1586574108.0,58.0,-30.65,24.01,59.49,11.59
172,namatanai,56.0,PG,1586574109.0,69.0,-3.67,152.43,84.76,5.3
173,nome,90.0,US,1586573997.0,97.0,64.5,-165.41,32.0,11.41
174,fortuna,90.0,US,1586574109.0,93.0,40.6,-124.16,55.99,10.29
175,aylesbury,99.0,GB,1586574109.0,81.0,51.82,-0.81,53.01,5.82
176,aklavik,75.0,CA,1586574110.0,53.0,68.22,-135.01,21.2,8.05
177,saleaula,,,,,,,,
178,bethel,90.0,US,1586574056.0,48.0,41.37,-73.41,45.0,11.41
179,luangwa,50.0,ZM,1586574111.0,73.0,-15.62,30.42,68.9,5.7
180,kualakapuas,75.0,ID,1586574111.0,94.0,-3.01,114.39,78.8,5.82
181,east london,1.0,ZA,1586574112.0,81.0,-33.02,27.91,67.42,7.27
182,chuy,0.0,UY,1586574112.0,83.0,-33.7,-53.46,61.29,4.23
183,kalomo,,,,,,,,
184,hermanus,99.0,ZA,1586574112.0,90.0,-34.42,19.23,62.01,5.01
185,huarmey,41.0,PE,1586574113.0,75.0,-10.07,-78.15,74.62,7.81
186,fare,96.0,PF,1586574113.0,67.0,-16.7,-151.02,84.25,5.03
187,samusu,,,,,,,,
188,el prat de llobregat,20.0,ES,1586574114.0,76.0,41.33,2.09,55.0,5.82
189,saint george,1.0,US,1586573905.0,41.0,37.1,-113.58,59.0,16.11
190,ust-kamchatsk,,,,,,,,
191,idrinskoye,0.0,RU,1586574114.0,73.0,54.37,92.14,35.69,2.08
192,aswan,37.0,EG,1586574114.0,31.0,24.09,32.91,64.4,11.41
193,pangnirtung,96.0,CA,1586574115.0,79.0,66.15,-65.71,13.73,4.56
194,parry sound,29.0,CA,1586574115.0,85.0,45.35,-80.03,36.0,13.0
195,pisco,0.0,PE,1586574115.0,83.0,-13.7,-76.22,72.0,8.05
196,port elizabeth,7.0,ZA,1586574018.0,100.0,-33.92,25.57,55.4,2.24
197,solikamsk,100.0,RU,1586574115.0,86.0,59.62,56.77,38.86,11.48
198,vicosa,85.0,BR,1586573991.0,99.0,-20.75,-42.88,69.01,2.48
199,khed brahma,0.0,IN,1586574116.0,15.0,24.03,73.05,91.06,6.76
200,arrecife,75.0,ES,1586574116.0,72.0,28.96,-13.55,66.2,9.17
201,jacqueville,74.0,CI,1586574116.0,88.0,5.21,-4.41,77.0,4.34
202,dhidhdhoo,45.0,MV,1586574116.0,65.0,6.88,73.1,84.78,5.5
203,gold coast,4.0,AU,1586574117.0,69.0,-28.0,153.43,88.0,14.99
204,namibe,77.0,AO,1586574117.0,62.0,-15.2,12.15,75.2,7.63
205,airai,58.0,TL,1586574117.0,65.0,-8.93,125.41,67.87,1.12
206,tuktoyaktuk,20.0,CA,1586574117.0,72.0,69.45,-133.04,10.4,5.82
207,yulara,9.0,AU,1586574117.0,18.0,-25.24,130.99,82.4,4.7
208,chagda,,,,,,,,
209,tabiauea,,,,,,,,
210,pemangkat,48.0,ID,1586574118.0,73.0,1.17,108.97,82.47,6.06
211,abha,58.0,SA,1586574118.0,77.0,18.22,42.51,64.4,9.17
212,bemidji,1.0,US,1586574118.0,51.0,47.47,-94.88,39.2,6.22
213,ponazyrevo,96.0,RU,1586574119.0,96.0,58.36,46.31,30.11,4.59
214,lazaro cardenas,0.0,MX,1586573940.0,82.0,17.96,-102.2,74.05,1.63
215,skegness,100.0,GB,1586574119.0,81.0,53.14,0.34,52.0,4.7
216,dingle,50.0,PH,1586574054.0,56.0,11.0,122.67,86.9,12.3
217,camocim,100.0,BR,1586574120.0,92.0,-2.9,-40.84,76.42,3.0
218,sechura,90.0,PE,1586574120.0,70.0,-5.56,-80.82,75.67,11.41
219,aquiraz,75.0,BR,1586574120.0,83.0,-3.9,-38.39,82.4,4.7
220,tiksi,89.0,RU,1586574120.0,93.0,71.69,128.87,25.56,33.26
221,nouakchott,0.0,MR,1586574121.0,78.0,18.09,-15.98,71.6,6.93
222,daura,100.0,NG,1586574121.0,14.0,11.55,11.41,79.12,9.17
223,kismayo,61.0,SO,1586573836.0,82.0,-0.36,42.55,81.57,8.93
224,san patricio,0.0,MX,1586574121.0,60.0,19.22,-104.7,77.81,12.84
225,san matias,84.0,BO,1586574122.0,69.0,-16.37,-58.4,70.7,3.6
226,malazgirt,100.0,TR,1586574122.0,49.0,39.14,42.54,38.73,2.35
227,port blair,29.0,IN,1586574122.0,66.0,11.67,92.75,83.39,7.85
228,sinegorye,44.0,RU,1586574122.0,80.0,62.08,150.48,29.01,1.5
229,laguna,1.0,US,1586574082.0,63.0,38.42,-121.42,66.2,11.41
230,cherskiy,100.0,RU,1586574123.0,95.0,68.75,161.3,15.91,18.45
231,tura,0.0,IN,1586574123.0,24.0,25.52,90.22,87.4,5.99
232,liusha,98.0,CN,1586574123.0,72.0,27.21,108.59,47.93,8.48
233,trzic,0.0,SI,1586574124.0,80.0,46.36,14.31,50.0,2.24
234,rawson,60.0,AR,1586573923.0,44.0,-43.3,-65.1,69.62,15.99
235,ban nahin,69.0,LA,1586574124.0,58.0,18.24,104.21,91.0,2.08
236,uusikaupunki,35.0,FI,1586574124.0,86.0,60.8,21.41,28.4,4.7
237,kloulklubed,75.0,PW,1586574124.0,62.0,7.04,134.26,87.8,10.29
238,cabo san lucas,75.0,MX,1586574003.0,60.0,22.89,-109.91,71.01,10.29
239,jiazi,73.0,CN,1586574125.0,74.0,22.88,116.07,75.38,4.36
240,calvinia,25.0,ZA,1586574125.0,39.0,-31.47,19.78,48.2,6.93
241,altay,100.0,CN,1586574125.0,43.0,47.87,88.12,45.9,1.54
242,delmas,96.0,ZA,1586574125.0,93.0,-26.15,28.68,57.99,3.27
243,ucluelet,2.0,CA,1586574126.0,85.0,48.93,-125.55,55.0,1.01
244,nizhneyansk,,,,,,,,
245,lesnoy,2.0,RU,1586574126.0,74.0,57.62,63.08,37.99,11.43
246,walvis bay,93.0,NA,1586574126.0,37.0,-22.96,14.51,73.85,9.37
247,kupang,90.0,ID,1586574126.0,78.0,-10.17,123.58,80.6,9.17
248,grand river south east,,,,,,,,
249,butaritari,60.0,KI,1586573957.0,73.0,3.07,172.79,84.7,8.63
250,fayaoue,86.0,NC,1586574127.0,63.0,-20.65,166.53,76.08,5.32
251,rio branco,100.0,BR,1586574003.0,100.0,-9.97,-67.81,73.4,2.24
252,nara,75.0,JP,1586574127.0,47.0,34.69,135.8,60.01,4.7
253,babanusah,,,,,,,,
254,chara,86.0,RU,1586574129.0,55.0,56.91,118.26,40.28,0.54
255,karpathos,0.0,GR,1586574129.0,82.0,35.51,27.21,59.0,24.16
256,iskateley,67.0,RU,1586574129.0,95.0,67.68,53.15,12.22,6.15
257,bandar-e torkaman,,,,,,,,
258,narsaq,100.0,GL,1586574130.0,22.0,60.92,-46.05,46.4,26.4
259,mollendo,90.0,PE,1586574130.0,79.0,-17.02,-72.01,70.2,6.29
260,maldonado,20.0,UY,1586574130.0,93.0,-34.67,-54.92,59.0,4.72
261,kabalo,73.0,CD,1586574130.0,81.0,-6.05,26.92,68.72,3.67
262,lorengau,65.0,PG,1586574062.0,73.0,-2.02,147.27,83.93,3.85
263,dunedin,0.0,NZ,1586574090.0,77.0,-45.87,170.5,57.0,15.01
264,knysna,54.0,ZA,1586574131.0,93.0,-34.04,23.05,51.8,4.7
265,san gabriel,75.0,US,1586574021.0,54.0,34.1,-118.11,60.8,3.36
266,kolomak,7.0,UA,1586574131.0,73.0,49.84,35.3,38.26,9.01
267,pevek,100.0,RU,1586574132.0,89.0,69.7,170.31,10.26,20.31
268,boa vista,20.0,BR,1586574132.0,74.0,2.82,-60.67,84.2,6.93
269,pitimbu,20.0,BR,1586574132.0,94.0,-7.47,-34.81,78.8,3.36
270,znamenskoye,82.0,RU,1586574132.0,90.0,57.13,73.83,38.82,6.49
271,erenhot,0.0,CN,1586574132.0,27.0,43.65,111.98,47.98,7.87
272,vytegra,100.0,RU,1586574133.0,93.0,61.01,36.45,27.79,2.3
273,vostok,44.0,RU,1586574133.0,49.0,46.49,135.88,38.86,6.22
274,austin,75.0,US,1586573895.0,64.0,30.27,-97.74,68.0,6.93
275,mahoba,20.0,IN,1586574133.0,14.0,25.28,79.87,90.18,3.2
276,monte siao,25.0,BR,1586573988.0,63.0,-22.43,-46.57,57.0,3.0
277,tabou,50.0,CI,1586574134.0,84.0,4.42,-7.35,79.39,3.47
278,pacific grove,40.0,US,1586574134.0,71.0,36.62,-121.92,60.8,6.93
279,coquimbo,77.0,CL,1586574134.0,82.0,-29.95,-71.34,61.97,5.7
280,dodge city,1.0,US,1586574134.0,45.0,37.75,-100.02,62.6,16.11
281,stoyba,,,,,,,,
282,bonavista,72.0,CA,1586573842.0,85.0,48.65,-53.11,34.0,1.99
283,talnakh,78.0,RU,1586574135.0,78.0,69.49,88.4,15.8,20.13
284,burica,,,,,,,,
285,villamartin,96.0,ES,1586574135.0,81.0,36.86,-5.64,60.8,2.24
286,sucua,89.0,EC,1586574136.0,59.0,-2.47,-78.17,71.46,0.45
287,biltine,99.0,TD,1586574032.0,13.0,14.53,20.92,81.5,11.97
288,nemuro,40.0,JP,1586574136.0,55.0,43.32,145.57,35.6,10.29
289,el buen pastor,,,,,,,,
290,merritt island,20.0,US,1586574137.0,60.0,28.54,-80.67,71.01,5.82
291,sola,64.0,VU,1586574137.0,73.0,-13.88,167.55,80.65,12.28
292,el cope,9.0,PA,1586574137.0,42.0,8.62,-80.6,78.01,3.0
293,ancud,39.0,CL,1586574014.0,100.0,-41.87,-73.82,42.8,1.12
294,kilindoni,100.0,TZ,1586574138.0,83.0,-7.91,39.67,80.98,21.83
295,tiznit,21.0,MA,1586574026.0,65.0,29.58,-9.5,62.42,2.64
296,hamilton,1.0,US,1586574138.0,68.0,39.18,-84.53,42.01,5.12
297,vila velha,90.0,BR,1586574093.0,94.0,-20.33,-40.29,73.4,3.36
298,arti,41.0,RU,1586574138.0,69.0,56.42,58.53,37.36,12.28
299,san quintin,99.0,MX,1586574139.0,73.0,30.48,-115.95,58.82,7.7
300,krasnoselkup,100.0,RU,1586574139.0,98.0,65.7,82.47,33.26,13.87
301,lahij,0.0,YE,1586574139.0,65.0,13.17,44.58,75.33,5.66
302,kanata,20.0,CA,1586574139.0,59.0,45.32,-75.9,36.0,14.99
303,rochelle,0.0,FR,1586574140.0,81.0,46.25,-1.0,51.8,4.7
304,srednekolymsk,100.0,RU,1586574140.0,98.0,67.45,153.68,29.7,6.96
305,rogovatoye,66.0,RU,1586574140.0,74.0,51.23,38.38,36.63,8.93
306,bubaque,10.0,GW,1586574140.0,80.0,11.28,-15.83,77.9,10.36
307,bata,100.0,GQ,1586574140.0,83.0,1.86,9.77,79.05,5.66
308,podporozhye,99.0,RU,1586574141.0,95.0,60.91,34.17,29.05,3.74
309,esfahan,1.0,IR,1586574002.0,76.0,32.66,51.68,48.2,6.93
310,chanute,1.0,US,1586574141.0,58.0,37.68,-95.46,53.01,8.05
311,turochak,0.0,RU,1586574141.0,73.0,52.26,87.12,37.24,1.74
312,omboue,98.0,GA,1586574142.0,88.0,-1.57,9.26,79.79,8.05
313,adrar,0.0,MR,1586574142.0,17.0,20.5,-10.07,77.05,11.45
314,caravelas,40.0,BR,1586574142.0,87.0,-17.71,-39.25,76.96,10.98
315,sao joao da barra,100.0,BR,1586574143.0,82.0,-21.64,-41.05,71.67,2.08
316,sondrio,0.0,IT,1586574143.0,53.0,46.17,9.87,57.99,6.93
317,neuchatel,0.0,CH,1586574143.0,81.0,46.92,6.83,54.0,2.24
318,makambako,56.0,TZ,1586574143.0,59.0,-8.85,34.82,57.06,7.56
319,taksimo,67.0,RU,1586574144.0,59.0,56.34,114.88,41.77,2.1
320,puerto escondido,12.0,MX,1586574144.0,71.0,15.85,-97.07,80.06,3.29
321,chardara,100.0,KZ,1586574144.0,48.0,41.25,67.97,56.7,6.31
322,husavik,40.0,IS,1586574145.0,92.0,66.04,-17.34,28.4,9.17
323,ust-kuyga,67.0,RU,1586574145.0,87.0,70.02,135.6,32.0,18.1
324,axim,80.0,GH,1586574145.0,82.0,4.87,-2.24,80.15,4.97
325,belmonte,75.0,BR,1586574066.0,94.0,-15.86,-38.88,75.2,6.93
326,pauini,49.0,BR,1586574145.0,91.0,-7.71,-66.98,74.25,0.83
327,bonga,85.0,ET,1586574146.0,57.0,7.28,36.23,59.43,1.86
328,arraial do cabo,75.0,BR,1586573944.0,94.0,-22.97,-42.03,69.8,1.12
329,los llanos de aridane,75.0,ES,1586574146.0,82.0,28.66,-17.92,68.0,8.05
330,mahebourg,40.0,MU,1586574146.0,83.0,-20.41,57.7,78.01,6.93
331,srivilliputtur,20.0,IN,1586574146.0,78.0,9.51,77.63,82.4,4.7
332,hasaki,20.0,JP,1586574106.0,37.0,35.73,140.83,63.0,6.93
333,asayita,,,,,,,,
334,nongstoin,0.0,IN,1586574147.0,21.0,25.52,91.27,75.38,5.68
335,ust-bolsheretsk,,,,,,,,
336,lumphat,68.0,KH,1586574147.0,44.0,13.49,106.98,92.75,3.13
337,najran,29.0,SA,1586574148.0,40.0,17.49,44.13,73.4,4.61
338,fethiye,0.0,TR,1586574148.0,62.0,36.62,29.12,55.4,12.75
339,katobu,17.0,ID,1586574148.0,77.0,-4.94,122.53,84.09,2.86
340,leningradskiy,92.0,RU,1586574148.0,89.0,69.38,178.42,15.46,7.76
341,makaha,75.0,US,1586574149.0,65.0,21.47,-158.22,82.4,11.41
342,phalaborwa,0.0,ZA,1586574149.0,93.0,-23.94,31.14,62.6,1.12
343,makung,,,,,,,,
344,guanica,0.0,PR,1586574149.0,77.0,17.97,-66.91,81.0,5.39
345,kavieng,86.0,PG,1586574149.0,73.0,-2.57,150.8,84.43,7.45
346,ankazobe,40.0,MG,1586574150.0,82.0,-18.32,47.12,60.8,8.05
347,goroka,55.0,PG,1586574150.0,41.0,-6.08,145.39,77.05,0.78
348,guerrero negro,1.0,MX,1586574150.0,64.0,27.98,-114.06,60.44,15.86
349,manzil tamim,,,,,,,,
350,gazalkent,75.0,UZ,1586574151.0,48.0,41.56,69.77,62.6,23.04
351,lavrentiya,98.0,RU,1586574151.0,95.0,65.58,-171.0,15.85,8.75
352,ruatoria,,,,,,,,
353,warqla,,,,,,,,
354,nguru,100.0,NG,1586574153.0,14.0,12.88,10.45,80.47,7.18
355,pangai,0.0,TO,1586574153.0,56.0,-19.8,-174.35,77.67,4.63
356,ryotsu,0.0,JP,1586574153.0,50.0,38.08,138.43,53.6,6.93
357,makungu,87.0,TZ,1586574153.0,62.0,-8.73,35.28,62.76,5.82
358,richards bay,3.0,ZA,1586574153.0,83.0,-28.78,32.04,69.22,14.29
359,jaca,20.0,ES,1586574154.0,100.0,42.57,-0.55,53.01,2.24
360,vaitupu,,,,,,,,
361,paamiut,100.0,GL,1586574154.0,79.0,61.99,-49.67,36.19,2.44
362,bathsheba,40.0,BB,1586573969.0,78.0,13.22,-59.52,78.8,11.41
363,sentyabrskiy,,,,,,,,
364,graaff-reinet,1.0,ZA,1586574072.0,57.0,-32.25,24.53,61.79,6.15
365,nago,40.0,JP,1586574155.0,60.0,26.59,127.98,73.4,16.11
366,olavarria,0.0,AR,1586574155.0,76.0,-36.89,-60.32,55.99,1.99
367,atikokan,92.0,CA,1586574155.0,79.0,48.76,-91.62,31.32,4.21
368,faro,40.0,PT,1586574066.0,72.0,37.02,-7.93,62.6,3.36
369,shellbrook,20.0,CA,1586574156.0,50.0,53.22,-106.4,30.2,14.99
370,byron bay,40.0,AU,1586574156.0,48.0,-28.65,153.62,82.4,13.87
371,ottumwa,90.0,US,1586574156.0,45.0,41.02,-92.41,50.0,4.7
372,ada,1.0,US,1586574156.0,38.0,43.42,-116.13,66.2,5.82
373,beringovskiy,100.0,RU,1586574157.0,94.0,63.05,179.32,11.55,16.55
374,ponta delgada,20.0,PT,1586574157.0,76.0,37.73,-25.67,57.2,10.29
375,puerto madero,20.0,MX,1586574157.0,79.0,14.72,-92.42,84.2,4.7
376,tungkang,,,,,,,,
377,progreso,20.0,MX,1586574158.0,69.0,21.28,-89.67,82.99,12.75
378,effingham,1.0,US,1586574158.0,61.0,32.37,-81.33,61.0,2.57
379,chirongui,20.0,YT,1586574158.0,78.0,-12.93,45.15,82.4,13.87
380,kankaanpaa,0.0,FI,1586574158.0,74.0,61.8,22.42,33.8,8.05
381,vredendal,14.0,ZA,1586574159.0,87.0,-31.67,18.5,56.95,2.53
382,batemans bay,28.0,AU,1586574160.0,60.0,-35.72,150.18,64.99,10.0
383,lata,75.0,PT,1586574160.0,87.0,40.16,-8.33,57.99,4.7
384,saint anthony,1.0,US,1586574160.0,47.0,45.02,-93.22,43.0,4.5
385,kampong cham,52.0,KH,1586574160.0,63.0,11.99,105.46,87.01,6.53
386,renqiu,0.0,CN,1586574161.0,22.0,38.7,116.09,67.23,13.38
387,gaomi,74.0,CN,1586574161.0,35.0,36.38,119.75,57.2,11.18
388,gayny,100.0,RU,1586574161.0,89.0,60.31,54.32,32.47,5.61
389,carnarvon,32.0,AU,1586574161.0,69.0,-24.87,113.63,82.4,8.05
390,nantucket,40.0,US,1586574093.0,75.0,41.28,-70.1,42.8,16.11
391,ust-tarka,18.0,RU,1586574162.0,89.0,55.57,75.7,39.81,6.38
392,kuldur,46.0,RU,1586574162.0,39.0,49.22,131.63,48.29,7.7
393,grand baie,40.0,MU,1586574162.0,83.0,-20.02,57.58,78.01,6.93
394,samarai,17.0,PG,1586574163.0,68.0,-10.62,150.67,83.8,8.23
395,velluru,,,,,,,,
396,meyungs,,,,,,,,
397,grand gaube,40.0,MU,1586574163.0,83.0,-20.01,57.66,78.01,6.93
398,bonfim,77.0,BR,1586574164.0,67.0,3.08,-59.95,82.45,6.6
399,isiro,86.0,CD,1586574164.0,80.0,2.77,27.62,67.39,2.28
400,sosnogorsk,98.0,RU,1586574164.0,95.0,63.6,53.88,22.75,7.85
401,buraydah,24.0,SA,1586574164.0,42.0,26.33,43.98,64.4,9.17
402,abalak,31.0,RU,1586574164.0,87.0,58.13,68.59,39.42,6.67
403,huanuco,100.0,PE,1586574165.0,34.0,-9.93,-76.24,65.1,2.64
404,copiapo,38.0,CL,1586574165.0,82.0,-27.37,-70.33,60.8,6.93
405,north myrtle beach,1.0,US,1586574165.0,57.0,33.82,-78.68,53.6,6.53
406,morococha,74.0,PE,1586574165.0,25.0,-11.6,-76.14,37.15,2.04
407,chama,0.0,CH,1586574165.0,86.0,47.18,8.46,48.0,2.24
408,north augusta,1.0,US,1586574155.0,66.0,33.5,-81.97,54.0,4.54
409,muzhi,100.0,RU,1586574166.0,97.0,65.37,64.67,35.71,12.71
410,tabulbah,,,,,,,,
411,buchanan,92.0,LR,1586574166.0,85.0,5.88,-10.05,78.22,2.26
412,troitsko-pechorsk,97.0,RU,1586574166.0,94.0,62.71,56.2,28.08,8.12
413,praia,78.0,CV,1586573969.0,78.0,14.92,-23.51,73.4,18.34
414,samfya,81.0,ZM,1586574167.0,66.0,-11.36,29.56,60.85,5.91
415,fengcheng,0.0,CN,1586574167.0,26.0,40.45,124.07,60.44,5.84
416,carnot,100.0,CF,1586574167.0,76.0,4.94,15.87,71.24,2.64
417,isangel,64.0,VU,1586574167.0,59.0,-19.55,169.27,78.39,9.26
418,alofi,9.0,NU,1586574168.0,65.0,-19.06,-169.92,82.4,5.82
419,nizhnyaya tavda,0.0,RU,1586574168.0,79.0,57.67,66.17,39.76,8.12
420,mago,0.0,RU,1586574168.0,77.0,53.25,140.18,36.82,5.55
421,hay river,75.0,CA,1586574168.0,67.0,60.82,-115.8,23.0,12.75
422,kamiiso,75.0,JP,1586574169.0,52.0,41.82,140.65,46.4,8.05
423,ossora,65.0,RU,1586574169.0,94.0,59.24,163.07,21.29,2.98
424,broken hill,0.0,AU,1586574169.0,40.0,-31.95,141.43,73.4,21.92
425,bendigo,14.0,AU,1586574030.0,44.0,-36.77,144.28,63.0,1.99
426,tigil,32.0,RU,1586574169.0,92.0,57.8,158.67,23.79,1.63
427,dicabisagan,84.0,PH,1586574170.0,70.0,17.08,122.42,81.07,3.11
428,macae,90.0,BR,1586574170.0,100.0,-22.37,-41.79,71.6,2.24
429,codrington,85.0,AU,1586574170.0,58.0,-38.27,141.97,56.48,27.25
430,amderma,,,,,,,,
431,princeton,1.0,US,1586574170.0,83.0,25.54,-80.41,81.0,10.29
432,ilam,0.0,NP,1586574171.0,21.0,26.92,87.92,73.63,4.65
433,tsihombe,,,,,,,,
434,luwuk,8.0,ID,1586574090.0,56.0,-0.95,122.79,88.72,4.12
435,iqaluit,75.0,CA,1586574171.0,78.0,63.75,-68.51,14.0,2.24
436,ugoofaaru,16.0,MV,1586574171.0,71.0,5.67,73.0,84.15,6.87
437,cap malheureux,40.0,MU,1586574172.0,83.0,-19.98,57.61,78.01,6.93
438,esperance,27.0,AU,1586574172.0,60.0,-33.87,121.9,71.6,9.17
439,manggar,54.0,ID,1586574172.0,65.0,-2.88,108.27,86.23,5.97
440,soe,53.0,ID,1586574172.0,69.0,-9.86,124.28,73.69,2.59
441,deputatskiy,18.0,RU,1586574173.0,89.0,69.3,139.9,22.64,22.44
442,chlorakas,20.0,CY,1586574174.0,93.0,34.8,32.41,57.2,4.7
443,maki,40.0,JP,1586574174.0,50.0,37.75,138.88,53.6,6.93
444,yar-sale,100.0,RU,1586574174.0,98.0,66.83,70.83,23.04,19.06
445,barcelos,90.0,PT,1586574174.0,93.0,41.54,-8.62,55.99,2.24
446,ngunguru,0.0,NZ,1586574175.0,67.0,-35.62,174.5,66.99,8.01
447,colac,91.0,AU,1586574175.0,93.0,-38.33,143.58,57.0,8.99
448,rocha,12.0,UY,1586574064.0,89.0,-34.48,-54.33,56.73,1.59
449,umzimvubu,,,,,,,,
450,beoumi,40.0,CI,1586574176.0,100.0,7.67,-5.58,71.6,6.93
451,vengerovo,73.0,RU,1586574176.0,94.0,55.68,76.75,37.08,5.55
452,nouadhibou,0.0,MR,1586574176.0,68.0,20.93,-17.03,69.8,25.28
453,vanimo,100.0,PG,1586574177.0,68.0,-2.67,141.3,85.6,6.76
454,glenluce,98.0,GB,1586574177.0,92.0,54.88,-4.81,54.0,1.99
455,shenjiamen,100.0,CN,1586574177.0,88.0,29.96,122.3,58.51,6.93
456,kuche,,,,,,,,
457,kaeo,18.0,NZ,1586574178.0,67.0,-35.1,173.78,66.99,8.01
458,napanee,75.0,CA,1586574178.0,48.0,44.25,-76.95,39.99,10.29
459,harper,45.0,LR,1586574178.0,82.0,4.38,-7.72,79.77,3.4
460,port lincoln,70.0,AU,1586574178.0,63.0,-34.73,135.87,62.37,15.9
461,sitka,1.0,US,1586574046.0,36.0,57.05,-135.33,46.4,4.7
462,santa rosa,40.0,PH,1586574179.0,62.0,14.31,121.11,89.01,8.05
463,sept-iles,75.0,CA,1586574022.0,86.0,50.2,-66.38,34.0,10.29
464,kijang,75.0,KR,1586574179.0,47.0,35.24,129.21,55.4,4.7
465,belaya gora,37.0,RU,1586574179.0,93.0,68.53,146.42,32.09,13.4
466,pandan,57.0,PH,1586574179.0,78.0,14.05,124.17,81.3,10.42
467,surt,87.0,LY,1586574180.0,55.0,31.21,16.59,57.43,7.65
468,makakilo city,1.0,US,1586574180.0,57.0,21.35,-158.09,82.4,11.41
469,missungwi,14.0,TZ,1586574180.0,65.0,-2.85,33.08,64.27,8.1
470,neuruppin,1.0,DE,1586574180.0,80.0,52.93,12.8,43.0,1.12
471,balkhash,100.0,KZ,1586574181.0,58.0,46.84,74.98,40.08,15.17
472,toliary,,,,,,,,
473,ust-tsilma,70.0,RU,1586574181.0,96.0,65.44,52.15,16.84,4.52
474,pemba,20.0,MZ,1586574182.0,88.0,-12.97,40.52,75.2,11.41
475,santa fe,0.0,AR,1586574182.0,58.0,-31.63,-60.7,64.0,1.99
476,linhares,75.0,BR,1586574182.0,92.0,-19.39,-40.07,71.71,2.26
477,mys shmidta,,,,,,,,
478,fort nelson,20.0,CA,1586574017.0,89.0,58.81,-122.7,32.0,9.17
479,coihaique,90.0,CL,1586574183.0,87.0,-45.58,-72.07,44.6,5.82
480,maykain,,,,,,,,
481,bjornevatn,98.0,NO,1586574183.0,92.0,69.67,29.98,17.6,17.22
482,ormara,0.0,PK,1586574125.0,68.0,25.21,64.64,79.38,0.81
483,lardos,0.0,GR,1586574183.0,77.0,36.09,28.02,59.0,3.36
484,la palma,75.0,US,1586574046.0,59.0,33.85,-118.05,60.8,4.7
485,san vicente,0.0,AR,1586574184.0,77.0,-26.62,-54.13,51.21,3.69
486,mandalgovi,28.0,MN,1586574184.0,24.0,45.76,106.27,46.53,15.26
487,port-gentil,100.0,GA,1586574184.0,83.0,-0.72,8.78,81.54,12.53
488,phalodi,0.0,IN,1586574184.0,26.0,27.13,72.37,85.66,8.39
489,kenai,1.0,US,1586574185.0,40.0,60.55,-151.26,41.0,8.05
490,karatsu,100.0,JP,1586573920.0,35.0,33.44,129.97,60.01,3.36
491,coremas,90.0,BR,1586574185.0,78.0,-7.01,-37.95,76.64,5.3
492,itoman,75.0,JP,1586574185.0,60.0,26.12,127.67,73.4,13.87
493,solovetskiy,,,,,,,,
494,matara,16.0,LK,1586574186.0,73.0,5.95,80.54,82.74,9.08
495,koscierzyna,0.0,PL,1586574186.0,86.0,54.12,17.98,36.0,2.24
496,dumas,1.0,US,1586574186.0,66.0,35.87,-101.97,60.8,14.99
497,ixtapa,40.0,MX,1586574186.0,78.0,20.7,-105.2,77.0,4.7
498,hofn,100.0,IS,1586574187.0,88.0,64.25,-15.21,42.57,10.65
499,paraiso,82.0,CR,1586574015.0,94.0,9.84,-83.87,73.4,4.7
500,mangrol,0.0,IN,1586574187.0,49.0,21.12,70.12,81.91,7.99
501,yefira,,,,,,,,
502,wasilla,1.0,US,1586574187.0,27.0,61.58,-149.44,42.8,1.19
503,hualmay,3.0,PE,1586574188.0,79.0,-11.1,-77.61,72.32,7.67
504,kuytun,100.0,RU,1586574188.0,77.0,54.34,101.5,36.95,9.15
505,pajapan,3.0,MX,1586574188.0,79.0,18.25,-94.7,79.34,0.58
506,channagiri,0.0,IN,1586574188.0,37.0,14.03,75.93,83.5,9.89
507,bengkulu,100.0,ID,1586574189.0,63.0,-3.8,102.27,85.03,2.08
508,aykhal,100.0,RU,1586574189.0,54.0,66.0,111.5,30.2,11.18
509,salyan,49.0,AZ,1586574189.0,79.0,39.59,48.98,46.87,3.06
510,adre,92.0,TD,1586574189.0,14.0,13.47,22.2,75.76,17.63
511,huaicheng,95.0,CN,1586574189.0,73.0,23.91,112.19,74.28,0.49
512,araguaina,41.0,BR,1586573995.0,84.0,-7.19,-48.21,75.6,1.72
513,labutta,,,,,,,,
514,bell ville,0.0,AR,1586574190.0,53.0,-32.63,-62.69,56.01,6.85
515,fuyu,0.0,CN,1586574190.0,34.0,45.18,124.82,56.82,17.13
516,general cepeda,95.0,MX,1586574190.0,24.0,25.38,-101.45,74.84,4.54
517,amparafaravola,37.0,MG,1586574191.0,71.0,-17.58,48.22,62.65,6.87
518,las cruces,1.0,US,1586574191.0,18.0,32.31,-106.78,69.8,6.93
519,beian,40.0,NO,1586574191.0,88.0,63.66,9.57,36.0,5.82
520,grindavik,90.0,IS,1586574191.0,93.0,63.84,-22.43,41.0,9.17
521,general pico,0.0,AR,1586574192.0,61.0,-35.66,-63.76,56.66,11.14
522,gizo,75.0,SB,1586574192.0,76.0,-8.1,156.84,83.84,9.17
523,mareeba,40.0,AU,1586574192.0,62.0,-17.0,145.43,88.0,8.05
524,khandyga,56.0,RU,1586574192.0,86.0,62.67,135.6,35.96,12.15
525,vostochnyy,55.0,RU,1586574192.0,92.0,55.82,37.87,32.0,6.71
526,chimore,59.0,BO,1586574193.0,67.0,-16.98,-65.13,67.37,1.97
527,mecca,81.0,SA,1586574080.0,28.0,21.43,39.83,69.04,7.29
528,campanha,0.0,BR,1586574192.0,71.0,-21.84,-45.4,58.1,3.31
529,salalah,40.0,OM,1586574081.0,78.0,17.02,54.09,80.6,3.36
530,el alto,36.0,PE,1586574193.0,69.0,-4.27,-81.21,74.08,9.31
531,soyo,89.0,AO,1586574194.0,88.0,-6.13,12.37,78.35,6.31
532,mitsamiouli,20.0,KM,1586574194.0,74.0,-11.38,43.28,84.0,9.73
533,lyuban,16.0,BY,1586574194.0,81.0,52.8,28.0,34.5,7.14
534,cheremukhovo,100.0,RU,1586574194.0,77.0,60.35,59.99,39.7,11.14
535,ambon,20.0,ID,1586574195.0,49.0,-3.7,128.18,93.2,11.41
536,omsukchan,90.0,RU,1586574195.0,87.0,62.53,155.8,16.25,8.95
537,poum,99.0,NC,1586574117.0,66.0,-20.23,164.02,78.24,7.09
538,asau,98.0,RO,1586574195.0,69.0,46.43,26.4,37.0,4.7
539,vila franca do campo,20.0,PT,1586574195.0,76.0,37.72,-25.43,57.2,10.29
540,suntar,100.0,RU,1586574196.0,72.0,62.14,117.63,38.12,4.76
541,marawi,14.0,PH,1586574196.0,43.0,8.0,124.29,82.85,5.73
542,noumea,20.0,NC,1586574024.0,48.0,-22.28,166.46,86.0,9.17
543,tokur,0.0,RU,1586574196.0,46.0,53.13,132.9,42.73,2.21
544,durant,1.0,US,1586574196.0,62.0,33.99,-96.37,62.6,9.1
545,aljezur,88.0,PT,1586574197.0,88.0,37.32,-8.8,59.0,8.84
546,arman,56.0,RU,1586574197.0,94.0,59.7,150.17,24.19,9.53
547,limoges,0.0,FR,1586574197.0,56.0,45.75,1.33,55.4,2.24
548,san luis,0.0,AR,1586574145.0,43.0,-33.3,-66.34,61.32,16.62
549,middle island,20.0,US,1586574197.0,48.0,40.88,-72.94,45.0,19.46
550,lingao,20.0,CN,1586574198.0,76.0,19.91,109.69,79.25,1.57
551,chulman,95.0,RU,1586574198.0,66.0,56.85,124.91,36.77,5.46
552,morant bay,20.0,JM,1586574127.0,78.0,17.88,-76.41,82.4,5.82
553,saryg-sep,100.0,RU,1586574198.0,56.0,51.5,95.6,36.18,2.93
554,altamont,1.0,US,1586574198.0,47.0,42.21,-121.74,60.01,4.7
555,maniitsoq,100.0,GL,1586574199.0,82.0,65.42,-52.9,33.96,3.69
556,marcona,,,,,,,,
557,wad rawah,61.0,SD,1586574199.0,16.0,15.16,33.14,76.44,15.5
558,mae sot,20.0,TH,1586574199.0,42.0,16.72,98.57,95.0,1.12
559,avera,1.0,US,1586574200.0,53.0,33.19,-82.53,54.0,5.82
560,porto novo,40.0,BJ,1586574200.0,88.0,6.5,2.6,80.6,2.24
561,padang,69.0,ID,1586574050.0,58.0,-0.95,100.35,88.34,0.63
562,taltal,22.0,CL,1586574200.0,78.0,-25.4,-70.48,61.7,3.06
563,lakatoro,20.0,VU,1586574200.0,62.0,-16.1,167.42,84.2,3.36
564,salinopolis,99.0,BR,1586574201.0,83.0,-0.61,-47.36,80.83,9.13
565,villa guerrero,20.0,MX,1586574201.0,24.0,18.87,-99.65,87.01,5.82
566,zaton,0.0,RU,1586574201.0,65.0,53.29,83.81,41.0,6.71
567,mudyuga,,,,,,,,
568,paita,75.0,PE,1586574201.0,67.0,-5.09,-81.11,76.5,11.27
569,sangmelima,100.0,CM,1586574202.0,81.0,2.93,11.98,69.03,3.38
570,sulina,1.0,RO,1586574202.0,57.0,45.16,29.65,45.81,9.71
571,jhudo,0.0,PK,1586574202.0,33.0,24.96,69.3,85.32,5.64
572,fostoria,1.0,US,1586574202.0,59.0,41.16,-83.42,41.0,4.7
573,buala,49.0,SB,1586574202.0,75.0,-8.14,159.59,84.04,8.41
574,roros,100.0,NO,1586574203.0,100.0,62.57,11.38,26.6,1.12
575,le port,40.0,RE,1586574057.0,78.0,-20.94,55.29,77.0,11.41
576,yaring,20.0,TH,1586574203.0,74.0,6.87,101.37,84.2,5.82
577,manyana,20.0,BW,1586574203.0,56.0,-23.4,21.72,63.1,6.4
578,gimli,100.0,CA,1586574203.0,75.0,50.63,-96.99,43.0,8.99
579,massakory,100.0,TD,1586574204.0,13.0,13.0,15.73,84.04,11.72
